{"type":"FeatureCollection","features":[{"type":"Feature","geometry":{"type":"Point","coordinates":[32.138784281455,39.434326538157]},"properties":{"oid":53809,"global_id":"3D26A7DD-8D63-A81D-CA28-6C11C579C5A1","tur":"PORTAŞ ASFALT ÜRETİM TESİSLERİ","adi":"POLATLI KARAHAMZALI TAŞ OCAĞI","adres":"Karahamzalı, Polatlı/Ankara","x":null,"y":null,"aktif":true,"mahalle":"YENİMEHMETLİ","aciklama":null}},{"type":"Feature","geometry":{"type":"Point","coordinates":[32.991384817489,39.860253452825]},"properties":{"oid":53811,"global_id":"45D7286A-E670-EBA3-B8C3-670539D732C8","tur":"PORTAŞ ASFALT ÜRETİM TESİSLERİ","adi":"MAMAK YENİ KIBRIS PLENT TESİSİ","adres":"Kıbrıs, Mamak/Ankara","x":null,"y":null,"aktif":true,"mahalle":"KIBRISKÖY","aciklama":null}},{"type":"Feature","geometry":{"type":"Point","coordinates":[32.137855202333,39.522856856084]},"properties":{"oid":53812,"global_id":"356DB169-C027-FE13-19D9-EB57893E035C","tur":"PORTAŞ ASFALT ÜRETİM TESİSLERİ","adi":"POLATLI PLENT TESİSİ","adres":"Eskipolatlı, 06900 Polatlı/Ankara","x":null,"y":null,"aktif":true,"mahalle":"ŞENTEPE","aciklama":null}},{"type":"Feature","geometry":{"type":"Point","coordinates":[32.862742657649,39.922528238751]},"properties":{"oid":8483,"global_id":"EFBBDAC1-74E7-AE52-E1F6-451CC5FDE8FE","tur":"OTOPARKLAR","adi":"KOLEJ AÇIK OTOPARKI","adres":"Kültür Mah. Çaldıran Sokak - Dışkapı No: 1 / İç Kapı No: 6","x":null,"y":null,"aktif":true,"mahalle":"KÜLTÜR","aciklama":null}},{"type":"Feature","geometry":{"type":"Point","coordinates":[32.846939598005,39.882335570668]},"properties":{"oid":8490,"global_id":"B7A3AD67-086F-889D-0007-B3F37E4BF117","tur":"OTOPARKLAR","adi":"DİKMEN VADİSİ AÇIK OTOPARKI","adres":"Güzeltepe 747 Ankara Çankaya Dışkapı No: 2 / İç Kapı No: 1","x":null,"y":null,"aktif":true,"mahalle":"GÜZELTEPE","aciklama":null}},{"type":"Feature","geometry":{"type":"Point","coordinates":[32.606155386464,40.454114583317]},"properties":{"oid":8494,"global_id":"B44C1233-36CA-45E2-432B-703A90512711","tur":"OTOPARKLAR","adi":"KIZILCAHAMAM SOĞUK SU MİLLİ PARKI OTOPARKI","adres":"Kızılcahamam Soğuk Su Milli Parkı İçerisi","x":null,"y":null,"aktif":true,"mahalle":"YENİCE","aciklama":null}},{"type":"Feature","geometry":{"type":"Point","coordinates":[31.921592242188,40.167502850868]},"properties":{"oid":8495,"global_id":"95BC7300-73CD-7614-F157-04C7937EB16A","tur":"OTOPARKLAR","adi":"BEYPAZARI YOL BOYU OTOPARK","adres":"Rüstem Paşa İrfan Gümüşel Ankara Beypazarı - Dışkapı No: 0 / İç Kapı No: ","x":null,"y":null,"aktif":true,"mahalle":"BEYTEPE","aciklama":null}},{"type":"Feature","geometry":{"type":"Point","coordinates":[32.851115297742,39.945363381366]},"properties":{"oid":8497,"global_id":"729D426D-B368-AE7D-A27A-1C39E3BE53AE","tur":"OTOPARKLAR","adi":"RÜZGARLI YOL BOYU OTOPARK","adres":"Doğanbey Mah. Çelik Cad., Fuat Börekçi Cad. ve Agah Efendi sok. Altındağ/Ankara","x":null,"y":null,"aktif":true,"mahalle":"HACI BAYRAM","aciklama":null}},{"type":"Feature","geometry":{"type":"Point","coordinates":[32.843657913347,39.933905013826]},"properties":{"oid":8501,"global_id":"CEC11FB3-621C-110B-6324-E639AF5B5466","tur":"OTOPARKLAR","adi":"AKSU KÖPRÜ ALTI","adres":"Celal Bayar Bulvarı Aksu Köprü Altı Otoparkı No:41/A ","x":null,"y":null,"aktif":true,"mahalle":"ETİ","aciklama":null}},{"type":"Feature","geometry":{"type":"Point","coordinates":[32.860020272494,39.916091206003]},"properties":{"oid":8510,"global_id":"3D66B213-083F-4DE7-C1BA-FD9829E69CEC","tur":"OTOPARKLAR","adi":"KOCATEPE ÇOK KATLI","adres":"Kocatepe Çok Katlı Otoparkı","x":null,"y":null,"aktif":true,"mahalle":"KÜLTÜR","aciklama":null}},{"type":"Feature","geometry":{"type":"Point","coordinates":[32.783962837352,39.772412207643]},"properties":{"oid":8710,"global_id":"F6EC337D-3890-A6C6-07AD-1DFAD7B5D520","tur":"BİTKİ EVİ","adi":"MOGAN BİTKİ EVİ","adres":"KARŞIYAKA MAH. ","x":null,"y":null,"aktif":true,"mahalle":"KARŞIYAKA","aciklama":null}},{"type":"Feature","geometry":{"type":"Point","coordinates":[32.815397723017,39.898332607488]},"properties":{"oid":10000,"global_id":"D317FEAC-E3BB-197B-2D3D-743660A33728","tur":"SEĞMEN SU SATIŞ BAYİLERİ","adi":"4S TURİZM GIDA İNŞAAT","adres":"OĞUZHANLAR MAHALLESİ","x":null,"y":null,"aktif":true,"mahalle":"OĞUZLAR","aciklama":null}},{"type":"Feature","geometry":{"type":"Point","coordinates":[32.898883627061,39.916034056778]},"properties":{"oid":10005,"global_id":"739C326F-CCB4-46FC-F0E1-090097C4E9E7","tur":"SEĞMEN SU SATIŞ BAYİLERİ","adi":"AYTUĞ GROSS","adres":"KUTLU MAHLLESİ","x":null,"y":null,"aktif":true,"mahalle":"KUTLU","aciklama":null}},{"type":"Feature","geometry":{"type":"Point","coordinates":[32.145103784724,39.578244243005]},"properties":{"oid":10007,"global_id":"4BE709F0-072A-4472-A08C-94B80F1E9ED2","tur":"SEĞMEN SU SATIŞ BAYİLERİ","adi":"BOZZO OĞULLARI TİCARET","adres":"YENİ MAHALLESİ","x":null,"y":null,"aktif":true,"mahalle":"YENİ","aciklama":null}},{"type":"Feature","geometry":{"type":"Point","coordinates":[32.809470527058,39.799201994645]},"properties":{"oid":10016,"global_id":"B725A725-538E-B62B-EC2C-185EB17D9AB3","tur":"SEĞMEN SU SATIŞ BAYİLERİ","adi":"KADİR ÇİÇEK","adres":"ŞAFAK MAHALLESİ","x":null,"y":null,"aktif":true,"mahalle":"ŞAFAK","aciklama":null}},{"type":"Feature","geometry":{"type":"Point","coordinates":[32.863961054046,39.865535643126]},"properties":{"oid":10017,"global_id":"89DD58EC-D207-E1BA-138B-FE01C81A8B20","tur":"SEĞMEN SU SATIŞ BAYİLERİ","adi":"KEZİ AYDOĞDU","adres":"SANCAK MAHALLESİ","x":null,"y":null,"aktif":true,"mahalle":"SANCAK","aciklama":null}},{"type":"Feature","geometry":{"type":"Point","coordinates":[32.614592540555,39.953986192578]},"properties":{"oid":10026,"global_id":"AF3ACE08-7948-3184-8986-8314928E39D8","tur":"SEĞMEN SU SATIŞ BAYİLERİ","adi":"TERZİ TİCARET","adres":"TOPÇU MAHALLESİ","x":null,"y":null,"aktif":true,"mahalle":"TOPÇU","aciklama":null}},{"type":"Feature","geometry":{"type":"Point","coordinates":[32.857862387696,39.900838841276]},"properties":{"oid":10027,"global_id":"928E4A32-202A-95CE-7B99-1090ED2BEB63","tur":"SEĞMEN SU SATIŞ BAYİLERİ","adi":"TUNAHAN MOBİLYA","adres":"YILDIRIM MAHALLESİ","x":null,"y":null,"aktif":true,"mahalle":"REMZİ OĞUZ ARIK","aciklama":null}},{"type":"Feature","geometry":{"type":"Point","coordinates":[32.920220778044,39.940911382076]},"properties":{"oid":10028,"global_id":"D2648475-FC8B-35C9-9B81-3646E2A91AE1","tur":"SEĞMEN SU SATIŞ BAYİLERİ","adi":"YEPAŞ EKMEK","adres":"ALTIAĞAÇ MAHALLESİ","x":null,"y":null,"aktif":true,"mahalle":"ALTIAĞAÇ","aciklama":null}},{"type":"Feature","geometry":{"type":"Point","coordinates":[32.810037471222,39.97109976067]},"properties":{"oid":10031,"global_id":"39382B55-5F0A-E51D-66BF-6D2EC4546645","tur":"SEĞMEN SU SATIŞ BAYİLERİ","adi":"DAMACANA SU BAYİİ","adres":"YUNUS EMRE MAHALLESİ","x":null,"y":null,"aktif":true,"mahalle":"YUNUS EMRE","aciklama":null}},{"type":"Feature","geometry":{"type":"Point","coordinates":[32.850578042337,39.973572687932]},"properties":{"oid":10036,"global_id":"86DA1BAE-FC9F-8ECD-8558-8E14071B4014","tur":"SEĞMEN SU SATIŞ BAYİLERİ","adi":"TEMİZLİK TIMES - SATI UYAR","adres":"BASINEVLER MAHALLESİ","x":null,"y":null,"aktif":true,"mahalle":"BASINEVLERİ","aciklama":null}},{"type":"Feature","geometry":{"type":"Point","coordinates":[32.802209240551,39.794513622315]},"properties":{"oid":10038,"global_id":"B4AD5759-F6A2-E76A-8263-580BF9270EF4","tur":"SEĞMEN SU SATIŞ BAYİLERİ","adi":"TUĞRA LİKİT PETROL ÜRÜNL. VE NAKL.","adres":"G.O.P MAHALLESİ","x":null,"y":null,"aktif":true,"mahalle":"GAZİOSMANPAŞA","aciklama":null}},{"type":"Feature","geometry":{"type":"Point","coordinates":[32.821464794117,39.924294965879]},"properties":{"oid":10039,"global_id":"983629F1-B314-39BC-8221-DDCE04A33ABF","tur":"SEĞMEN SU SATIŞ BAYİLERİ","adi":"VEGA GRUP","adres":"MİMAR SİNAN MAHALLESİ","x":null,"y":null,"aktif":true,"mahalle":"EMEK","aciklama":null}},{"type":"Feature","geometry":{"type":"Point","coordinates":[33.541846111694,38.936844768561]},"properties":{"oid":10041,"global_id":"AA05D403-5A52-C295-B2B3-2424A634211B","tur":"SEĞMEN SU SATIŞ BAYİLERİ","adi":"ABDULLAH BOSTAN","adres":"EKİCİ MAHALLESİ","x":null,"y":null,"aktif":true,"mahalle":"EKİCİ","aciklama":null}},{"type":"Feature","geometry":{"type":"Point","coordinates":[32.830125455896,39.920377704548]},"properties":{"oid":10043,"global_id":"57277B6C-F51A-B67E-BA06-6245353EBE11","tur":"SEĞMEN SU SATIŞ BAYİLERİ","adi":"HASGÜN GIDA NAK.","adres":"BAHÇELİEVLER MAHALLESİ","x":null,"y":null,"aktif":true,"mahalle":"YUKARI BAHÇELİEVLER","aciklama":null}},{"type":"Feature","geometry":{"type":"Point","coordinates":[32.850601821466,39.90282458696]},"properties":{"oid":10044,"global_id":"34482CF2-736B-9734-849D-9060CC0847AA","tur":"SEĞMEN SU SATIŞ BAYİLERİ","adi":"İSMAİL DAŞDAN","adres":"AYRANCI MAHALLESİ","x":null,"y":null,"aktif":true,"mahalle":"AYRANCI","aciklama":null}},{"type":"Feature","geometry":{"type":"Point","coordinates":[32.87076650544,39.905934453519]},"properties":{"oid":10045,"global_id":"21CF03FD-E473-1DEE-1EE0-B189DF1F72CA","tur":"SEĞMEN SU SATIŞ BAYİLERİ","adi":"RAMAZAN KAYA","adres":"MUHSİN ERTUĞRUL MAHALLESİ","x":null,"y":null,"aktif":true,"mahalle":"MUHSİN ERTUĞRUL","aciklama":null}},{"type":"Feature","geometry":{"type":"Point","coordinates":[32.834748342403,39.890111947051]},"properties":{"oid":10048,"global_id":"EFADF1C2-C809-A74E-CAD5-610EC3A36A72","tur":"SEĞMEN SU SATIŞ BAYİLERİ","adi":"ÇAKIRLAR KAYNAK SULARI","adres":"DİKMEN MAHALLESİ","x":null,"y":null,"aktif":true,"mahalle":"SOKULLU MEHMET PAŞA","aciklama":null}},{"type":"Feature","geometry":{"type":"Point","coordinates":[32.143454969381,39.583009535648]},"properties":{"oid":10049,"global_id":"D12E3B50-530B-B6E4-5623-2CC8A3792051","tur":"SEĞMEN SU SATIŞ BAYİLERİ","adi":"HATİCE AYTAÇ","adres":"CUMHURİYET MAHALLESİ","x":null,"y":null,"aktif":true,"mahalle":"CUMHURİYET","aciklama":null}},{"type":"Feature","geometry":{"type":"Point","coordinates":[32.875725269388,39.877956247533]},"properties":{"oid":10052,"global_id":"058B805B-D0FF-465B-6843-A2B02B94DD7A","tur":"SEĞMEN SU SATIŞ BAYİLERİ","adi":"ŞAHİN TİCARET","adres":"BİRLİK MAHALLESİ","x":null,"y":null,"aktif":true,"mahalle":"BİRLİK","aciklama":null}},{"type":"Feature","geometry":{"type":"Point","coordinates":[32.825617570791,39.924376104462]},"properties":{"oid":10074,"global_id":"BEEE5439-AA3B-594A-AFC0-2C3B585299F6","tur":"SEĞMEN SU SATIŞ BAYİLERİ","adi":"YILMAZ GÜNDOĞDU","adres":"EMEK MAHALLESİ","x":null,"y":null,"aktif":true,"mahalle":"YUKARI BAHÇELİEVLER","aciklama":null}},{"type":"Feature","geometry":{"type":"Point","coordinates":[32.880859061531,39.929064335798]},"properties":{"oid":10062,"global_id":"90069879-3EDE-5DDF-AA2D-66DD4B3545AF","tur":"SEĞMEN SU SATIŞ BAYİLERİ","adi":"YILMAZ GÜNDOĞDU","adres":"CEBECİ MAHALLESİ","x":null,"y":null,"aktif":true,"mahalle":"ERTUĞRULGAZİ","aciklama":null}},{"type":"Feature","geometry":{"type":"Point","coordinates":[32.857020640095,39.897541785894]},"properties":{"oid":10070,"global_id":"116D30F3-0900-A818-6B05-BAEF7929E799","tur":"SEĞMEN SU SATIŞ BAYİLERİ","adi":"YAŞAR DOĞAN","adres":"KÜÇÜK ESAT MAHALLESİ","x":null,"y":null,"aktif":true,"mahalle":"GÜVENEVLER","aciklama":null}},{"type":"Feature","geometry":{"type":"Point","coordinates":[32.803460848098,39.88442405695]},"properties":{"oid":10073,"global_id":"62BBDBF8-416F-DCA4-F035-80F6AA03A218","tur":"SEĞMEN SU SATIŞ BAYİLERİ","adi":"SEDAT ALTINOK","adres":"ÇİĞDEM MAHALLESİ","x":null,"y":null,"aktif":true,"mahalle":"ÇİĞDEM","aciklama":null}},{"type":"Feature","geometry":{"type":"Point","coordinates":[32.695739363402,39.963146916703]},"properties":{"oid":10075,"global_id":"DD76C966-EC58-6556-CEB6-95185F5D4EF6","tur":"SEĞMEN SU SATIŞ BAYİLERİ","adi":"ATAKAN YILDIRIM","adres":"ÇAKIRLAR MAHALLESİ","x":null,"y":null,"aktif":true,"mahalle":"BATI SİTESİ","aciklama":null}},{"type":"Feature","geometry":{"type":"Point","coordinates":[32.890947801471,39.906198602473]},"properties":{"oid":10076,"global_id":"68A0CD76-EFAA-4447-0F4E-FE7B9AE6D5CF","tur":"SEĞMEN SU SATIŞ BAYİLERİ","adi":"KADİR ÜNAL","adres":"BOZTEPE MAHALLESİ","x":null,"y":null,"aktif":true,"mahalle":"BOZTEPE","aciklama":null}},{"type":"Feature","geometry":{"type":"Point","coordinates":[32.871143311373,39.925626727914]},"properties":{"oid":10077,"global_id":"3F90D865-5E9A-FC17-EC65-8D90BFE8E4A4","tur":"SEĞMEN SU SATIŞ BAYİLERİ","adi":"GENCAY GÜNDOĞDU","adres":"ÇAMLITEPE MAHALLESİ","x":null,"y":null,"aktif":true,"mahalle":"ÇAMLITEPE","aciklama":null}},{"type":"Feature","geometry":{"type":"Point","coordinates":[32.590742970805,39.965785997944]},"properties":{"oid":10080,"global_id":"FADC8D1F-CF30-3DA7-9399-E86D3B17E0AE","tur":"SEĞMEN SU SATIŞ BAYİLERİ","adi":"FEVZİ KAYA","adres":"AKŞEMSETTİN MAHALLESİ","x":null,"y":null,"aktif":true,"mahalle":"AKŞEMSETTİN","aciklama":null}},{"type":"Feature","geometry":{"type":"Point","coordinates":[32.849262489315,39.923841148931]},"properties":{"oid":53628,"global_id":"4FCA896A-6244-59AB-120F-89415046CC57","tur":"OTOPARKLAR","adi":"DEMİRTEPE AÇIK OTOPARKI (ARAÇ KAPASİTESİ: 30)","adres":"Korkut Reis Mah. Necatibey Cad. - Dışkapı No: 60 / İç Kapı No: A","x":null,"y":null,"aktif":true,"mahalle":"KORKUTREİS","aciklama":null}},{"type":"Feature","geometry":{"type":"Point","coordinates":[32.861911386496,39.923320963641]},"properties":{"oid":53750,"global_id":"7C9E4A10-C13F-2E76-D0F0-CAB91D6BF64E","tur":"BELKO VİTAMİN DEPOLARI","adi":"Kolej Satış Büfesi","adres":"Kültür Mh. Ziya Gökalp Cd. No: 50/2 Çankaya ","x":null,"y":null,"aktif":true,"mahalle":"KÜLTÜR","aciklama":null}},{"type":"Feature","geometry":{"type":"Point","coordinates":[32.792838053398,39.965972250088]},"properties":{"oid":53755,"global_id":"72782D4A-E796-1FAF-4E8E-B49EC08FD75C","tur":"BELKO VİTAMİN DEPOLARI","adi":"Demetevler Satış Büfesi","adres":"Demetlale Mh. Vatan Cd. No: 30/3 Yenimahalle","x":null,"y":null,"aktif":true,"mahalle":"DEMETLALE","aciklama":null}},{"type":"Feature","geometry":{"type":"Point","coordinates":[32.830138962264,39.973823491384]},"properties":{"oid":53762,"global_id":"AF4793E7-4555-BB8A-6629-405826BF4FD7","tur":"BELKO VİTAMİN DEPOLARI","adi":"Osmanlı Satış Büfesi","adres":"Etlik Mh. Yeni Etlik Cd. Osmanlı İş Merkezi Önü","x":null,"y":null,"aktif":true,"mahalle":"AŞAĞI EĞLENCE","aciklama":null}},{"type":"Feature","geometry":{"type":"Point","coordinates":[32.875795680484,39.967881949598]},"properties":{"oid":53763,"global_id":"A5261CCC-0FC9-C6DD-84FC-4B45073FF212","tur":"ANFA KAFELER","adi":"Altınpark Expo Ala Kafeterya","adres":"Şehit Ömer Halisdemir Bulvarı 142/6 Aydınlıkevler Altınpark Fuar A Salonu içi","x":null,"y":null,"aktif":true,"mahalle":"AYDINLIKEVLER","aciklama":null}},{"type":"Feature","geometry":{"type":"Point","coordinates":[33.648226522436,38.778325884102]},"properties":{"oid":53802,"global_id":"18971DF7-08D1-C232-E8E7-CC204477E9D0","tur":"PORTAŞ ASFALT ÜRETİM TESİSLERİ","adi":"ŞEREFLİKOÇHİSAR TAŞ OCAĞI","adres":"Çalören, Şereflikoçhisar/Ankara","x":null,"y":null,"aktif":true,"mahalle":"ALİUŞAĞI","aciklama":null}},{"type":"Feature","geometry":{"type":"Point","coordinates":[32.8264369001349,39.9767032865413]},"properties":{"oid":144,"global_id":"079D06A1-7BBA-4367-8A41-D53096B37072","tur":"HALK EKMEK","adi":"HALK EKMEK BAYİİ","adres":"Ayvalı, Etlik Cd, 06010 Keçiören/Ankara","x":null,"y":null,"aktif":true,"mahalle":"ETLİK","aciklama":null}},{"type":"Feature","geometry":{"type":"Point","coordinates":[32.8163984795712,39.9732481693437]},"properties":{"oid":145,"global_id":"224D29B5-7864-6D6E-9CB7-6D467E442475","tur":"HALK EKMEK","adi":"HALK EKMEK BAYİİ","adres":"Ayvalı, Gazze Cd. 60 B, 06010 Keçiören/Ankara","x":null,"y":null,"aktif":true,"mahalle":"AYVALI","aciklama":null}},{"type":"Feature","geometry":{"type":"Point","coordinates":[32.856439198359,39.9879650254439]},"properties":{"oid":117,"global_id":"8D2DA430-CBEE-F72C-5D8F-F89C86CC01BF","tur":"HALK EKMEK","adi":"HALK EKMEK BAYİİ","adres":"19 Mayıs, Gün Sazak Cd. No:38, 06290 Keçiören/Ankara","x":null,"y":null,"aktif":true,"mahalle":"19 MAYIS","aciklama":null}},{"type":"Feature","geometry":{"type":"Point","coordinates":[32.8787364271952,40.0061409844295]},"properties":{"oid":118,"global_id":"DCAD8874-1F57-3329-172A-7F81B3A5A521","tur":"HALK EKMEK","adi":"HALK EKMEK BAYİİ","adres":"23 Nisan, Kavşak Sk. No:35, 06300 Keçiören/Ankara","x":null,"y":null,"aktif":true,"mahalle":"23 NİSAN","aciklama":null}},{"type":"Feature","geometry":{"type":"Point","coordinates":[32.6542699983581,39.9408883265253]},"properties":{"oid":119,"global_id":"3F670CBB-7FE5-64F1-19A0-41A24882523B","tur":"HALK EKMEK","adi":"HALK EKMEK BAYİİ","adres":"30 Ağustos, Şht. Yalçın Çelik Sk. No:8 06794, 06794 Etimesgut/Ankara","x":null,"y":null,"aktif":true,"mahalle":"30 AĞUSTOS","aciklama":null}},{"type":"Feature","geometry":{"type":"Point","coordinates":[32.8831878965073,39.9259112161333]},"properties":{"oid":120,"global_id":"29F237F8-D6B8-73F5-F83D-30CA8EDABBD0","tur":"HALK EKMEK","adi":"HALK EKMEK BAYİİ","adres":"Abidinpaşa, Bağlarbaşı Cd. No:2, 06620 Mamak/Ankara","x":null,"y":null,"aktif":true,"mahalle":"ABİDİNPAŞA","aciklama":null}},{"type":"Feature","geometry":{"type":"Point","coordinates":[32.5797485432911,39.9695378581742]},"properties":{"oid":121,"global_id":"4587A1D5-A901-127A-2179-9B605F42D855","tur":"HALK EKMEK","adi":"HALK EKMEK BAYİİ","adres":"Ahi Evran, Bahçe Sk., 06935 Sincan/Ankara","x":null,"y":null,"aktif":true,"mahalle":"AHİ EVRAN","aciklama":null}},{"type":"Feature","geometry":{"type":"Point","coordinates":[32.6452314123579,39.9289313270012]},"properties":{"oid":122,"global_id":"AE12820E-F9B6-C721-75CC-4891E7FBAE7E","tur":"HALK EKMEK","adi":"HALK EKMEK BAYİİ","adres":"Ahi Mesut, 2206. Cd. No:12, 06794 Etimesgut/Ankara","x":null,"y":null,"aktif":true,"mahalle":"AHİ MESUT","aciklama":null}},{"type":"Feature","geometry":{"type":"Point","coordinates":[32.8833378157188,39.9603550853392]},"properties":{"oid":123,"global_id":"6E81F0FF-9F8B-F914-B4DC-11ABE52DB1D4","tur":"HALK EKMEK","adi":"HALK EKMEK BAYİİ","adres":"Ahiler, Çevreli Cd. No:101, 06130 Altındağ/Ankara","x":null,"y":null,"aktif":true,"mahalle":"AYDINLIKEVLER","aciklama":null}},{"type":"Feature","geometry":{"type":"Point","coordinates":[32.8769979749961,39.941561753832]},"properties":{"oid":124,"global_id":"0F01BB58-0B5E-0EBD-F6FB-80B581533C37","tur":"HALK EKMEK","adi":"HALK EKMEK BAYİİ","adres":"Aktaş, Mevlana Cd., 06080 Altındağ/Ankara","x":null,"y":null,"aktif":true,"mahalle":"GÜLTEPE","aciklama":null}},{"type":"Feature","geometry":{"type":"Point","coordinates":[32.7454864572689,39.9711436226921]},"properties":{"oid":125,"global_id":"2C78DCF8-F90D-7FA1-27D0-2532F298EE41","tur":"HALK EKMEK","adi":"HALK EKMEK BAYİİ","adres":"Alınteri Blv. No:64, 06374 Ostim Osb/Yenimahalle/Ankara","x":null,"y":null,"aktif":true,"mahalle":"OSTİM OSB","aciklama":null}},{"type":"Feature","geometry":{"type":"Point","coordinates":[32.8966085771407,39.9660914885895]},"properties":{"oid":126,"global_id":"AD132FCA-CDB3-1C01-AF07-C383F035E9DA","tur":"HALK EKMEK","adi":"HALK EKMEK BAYİİ","adres":"Ali Ersoy, 06160 Altındağ/Ankara","x":null,"y":null,"aktif":true,"mahalle":"GÜNEŞEVLER","aciklama":null}},{"type":"Feature","geometry":{"type":"Point","coordinates":[32.795565914427,39.9718141210725]},"properties":{"oid":127,"global_id":"4394D4CE-F7C1-2D13-A696-F371B7CA8795","tur":"HALK EKMEK","adi":"HALK EKMEK BAYİİ","adres":"Anadolu, 06210 Yenimahalle/Ankara","x":null,"y":null,"aktif":true,"mahalle":"ANADOLU","aciklama":null}},{"type":"Feature","geometry":{"type":"Point","coordinates":[32.8540844325103,39.9290247030304]},"properties":{"oid":128,"global_id":"DF564415-900F-13AF-13D9-AB1C9A45EEE2","tur":"HALK EKMEK","adi":"HALK EKMEK BAYİİ","adres":"Anafartalar, Atatürk Blv, 06050 Altındağ/Ankara","x":null,"y":null,"aktif":true,"mahalle":"KORKUTREİS","aciklama":null}},{"type":"Feature","geometry":{"type":"Point","coordinates":[32.8509812902637,39.9405036223859]},"properties":{"oid":129,"global_id":"3543C36A-D984-2536-B468-847C03166907","tur":"HALK EKMEK","adi":"HALK EKMEK BAYİİ","adres":"Anafartalar, Kültür Varlıklar ve Müzeler genel Müdürlüğü 06050 Altındağ/Ankara","x":null,"y":null,"aktif":true,"mahalle":"HACI BAYRAM","aciklama":null}},{"type":"Feature","geometry":{"type":"Point","coordinates":[32.8579590623041,39.9400391121745]},"properties":{"oid":130,"global_id":"4696E9CA-FCBD-FB24-8A46-750BDDDA4660","tur":"HALK EKMEK","adi":"HALK EKMEK BAYİİ","adres":"Anafartalar, Şht. Teğmen Kalmaz Cd. No:34, 06050 Altındağ/Ankara","x":null,"y":null,"aktif":true,"mahalle":"HACI BAYRAM","aciklama":null}},{"type":"Feature","geometry":{"type":"Point","coordinates":[32.8357577670091,39.9760470322037]},"properties":{"oid":131,"global_id":"470FF294-6F42-FA85-273E-8E093FFC0CAE","tur":"HALK EKMEK","adi":"HALK EKMEK BAYİİ","adres":"Aşağı Eğlence, Mühendisler Sk. No:35, 06010 Keçiören/Ankara","x":null,"y":null,"aktif":true,"mahalle":"AŞAĞI EĞLENCE","aciklama":null}},{"type":"Feature","geometry":{"type":"Point","coordinates":[32.8956598082633,39.925167478387]},"properties":{"oid":132,"global_id":"07420051-7355-64A8-CCFF-AD8459E38F3B","tur":"HALK EKMEK","adi":"HALK EKMEK BAYİİ","adres":"Aşık Veysel, Bağlarbaşı Cd., 06620 Mamak/Ankara","x":null,"y":null,"aktif":true,"mahalle":"AŞIK VEYSEL","aciklama":null}},{"type":"Feature","geometry":{"type":"Point","coordinates":[32.88279504696,39.9110075016574]},"properties":{"oid":133,"global_id":"5C1473F8-9DD1-AE82-D6AE-EF38BB944D4B","tur":"HALK EKMEK","adi":"HALK EKMEK BAYİİ","adres":"Aşıkpaşa, Ziya Oralay Cd. No:296, 06670 Çankaya/Ankara","x":null,"y":null,"aktif":true,"mahalle":"AŞIKPAŞA","aciklama":null}},{"type":"Feature","geometry":{"type":"Point","coordinates":[32.8445352181271,40.0058084680607]},"properties":{"oid":134,"global_id":"D8758005-8956-A34A-0F1B-DF87107C3C43","tur":"HALK EKMEK","adi":"HALK EKMEK BAYİİ","adres":"Atapark, 1288. Sk. 34/A, 06280 Keçiören/Ankara","x":null,"y":null,"aktif":true,"mahalle":"ATAPARK","aciklama":null}},{"type":"Feature","geometry":{"type":"Point","coordinates":[32.8480488605996,40.0063208926607]},"properties":{"oid":135,"global_id":"5E98F878-E049-5BB0-8F43-511CF1FC2DFF","tur":"HALK EKMEK","adi":"HALK EKMEK BAYİİ","adres":"Atapark, Elmalık Cd., 06280 Keçiören/Ankara","x":null,"y":null,"aktif":true,"mahalle":"ATAPARK","aciklama":null}},{"type":"Feature","geometry":{"type":"Point","coordinates":[32.5820061052542,39.9562568566723]},"properties":{"oid":136,"global_id":"818D8C8C-0382-943C-B3F6-86852EC23E6B","tur":"HALK EKMEK","adi":"HALK EKMEK BAYİİ","adres":"Atatürk, 06936 Sincan/Ankara","x":null,"y":null,"aktif":true,"mahalle":"ATATÜRK","aciklama":null}},{"type":"Feature","geometry":{"type":"Point","coordinates":[32.7913295623056,39.9869513965021]},"properties":{"oid":137,"global_id":"63D54043-B2DC-B391-524A-4B393C5292F1","tur":"HALK EKMEK","adi":"HALK EKMEK BAYİİ","adres":"Avcılar, Demirdağ Cd No:139, 06210 Yenimahalle/Ankara","x":null,"y":null,"aktif":true,"mahalle":"KALETEPE","aciklama":null}},{"type":"Feature","geometry":{"type":"Point","coordinates":[32.7851843212383,39.9866202303583]},"properties":{"oid":138,"global_id":"2FD5984B-1904-0574-8F18-2CACBC33E111","tur":"HALK EKMEK","adi":"HALK EKMEK BAYİİ","adres":"Avcılar, Karahöyük Cd. No:48, 06210 Yenimahalle/Ankara","x":null,"y":null,"aktif":true,"mahalle":"AVCILAR","aciklama":null}},{"type":"Feature","geometry":{"type":"Point","coordinates":[32.8366057353172,39.8820962208101]},"properties":{"oid":139,"global_id":"E31B35EF-BB72-B00F-88B2-C722C2E60ED8","tur":"HALK EKMEK","adi":"HALK EKMEK BAYİİ","adres":"Aydınlar, Mimar Cd. No:35, 06460 Çankaya/Ankara","x":null,"y":null,"aktif":true,"mahalle":"AYDINLAR","aciklama":null}},{"type":"Feature","geometry":{"type":"Point","coordinates":[32.8728188610222,39.9635454857486]},"properties":{"oid":140,"global_id":"462F1E95-77BB-0AE0-29A1-75A43A220A30","tur":"HALK EKMEK","adi":"HALK EKMEK BAYİİ","adres":"Aydınlıkevler, Çevreli Cd. No:5, 06130 Altındağ/Ankara","x":null,"y":null,"aktif":true,"mahalle":"AYDINLIKEVLER","aciklama":null}},{"type":"Feature","geometry":{"type":"Point","coordinates":[32.850622590981,39.9000865913918]},"properties":{"oid":141,"global_id":"D204A039-1E07-A77A-1E68-0205A30C5860","tur":"HALK EKMEK","adi":"HALK EKMEK BAYİİ","adres":"Farabi Sk. Ayrancı, Kuveyt Cd. 42 A, 06540 Çankaya/Ankara","x":null,"y":null,"aktif":true,"mahalle":"AYRANCI","aciklama":null}},{"type":"Feature","geometry":{"type":"Point","coordinates":[32.8160132334695,39.9790035161073]},"properties":{"oid":142,"global_id":"EC42CB11-E357-03A7-931A-965B34F2E2E1","tur":"HALK EKMEK","adi":"HALK EKMEK BAYİİ","adres":"Ayvalı, 182. Cd. No:11, 06010 Keçiören/Ankara","x":null,"y":null,"aktif":true,"mahalle":"AYVALI","aciklama":null}},{"type":"Feature","geometry":{"type":"Point","coordinates":[32.8231464951254,39.9789818902641]},"properties":{"oid":143,"global_id":"95C82976-766C-9004-0421-49F40AE12FE6","tur":"HALK EKMEK","adi":"HALK EKMEK BAYİİ","adres":"Ayvalı, Ayvalı Cd., 06010 Keçiören/Ankara","x":null,"y":null,"aktif":true,"mahalle":"AYVALI","aciklama":null}},{"type":"Feature","geometry":{"type":"Point","coordinates":[32.8264852736831,39.9767736342532]},"properties":{"oid":146,"global_id":"896898F7-90EE-96F6-6DA2-D9B5616B6332","tur":"HALK EKMEK","adi":"HALK EKMEK BAYİİ","adres":"Ayvalı, No:, Mehtap Cd. No:2, 06010 Keçiören/Ankara","x":null,"y":null,"aktif":true,"mahalle":"ETLİK","aciklama":null}},{"type":"Feature","geometry":{"type":"Point","coordinates":[32.8016883632378,39.9874468660202]},"properties":{"oid":147,"global_id":"DD1A4B39-5F7B-2EF4-2116-BAFAF8A6B77F","tur":"HALK EKMEK","adi":"HALK EKMEK BAYİİ","adres":"Ayvalı, Seval Cd. No:2, 06010 Keçiören/Ankara","x":null,"y":null,"aktif":true,"mahalle":"BURÇ","aciklama":null}},{"type":"Feature","geometry":{"type":"Point","coordinates":[32.9151199340588,39.9301457589148]},"properties":{"oid":148,"global_id":"92EE258A-54CD-B905-E856-8C92CE24BF06","tur":"HALK EKMEK","adi":"HALK EKMEK BAYİİ","adres":"Bahçeleriçi, Mamak Cd. No:186, 06260 Mamak/Ankara","x":null,"y":null,"aktif":true,"mahalle":"BAHÇELERİÇİ","aciklama":null}},{"type":"Feature","geometry":{"type":"Point","coordinates":[32.8173845469602,39.9176057526803]},"properties":{"oid":149,"global_id":"B71DD8C7-268E-681F-6AB2-71ACCD033E1F","tur":"HALK EKMEK","adi":"HALK EKMEK BAYİİ","adres":"Bahçelievler 8. Cad, 3. Sk., 06490 Çankaya/Ankara","x":null,"y":null,"aktif":true,"mahalle":"EMEK","aciklama":null}},{"type":"Feature","geometry":{"type":"Point","coordinates":[32.8263957475957,39.9283901551861]},"properties":{"oid":150,"global_id":"4CAA724E-8059-149E-D9D3-106F15B8CD9D","tur":"HALK EKMEK","adi":"HALK EKMEK BAYİİ","adres":"Bahçelievler, Azerbaycan Cd. No:35, 06490 Çankaya/Ankara","x":null,"y":null,"aktif":true,"mahalle":"BAHÇELİEVLER","aciklama":null}},{"type":"Feature","geometry":{"type":"Point","coordinates":[32.891005206491,39.9374125339982]},"properties":{"oid":151,"global_id":"F8A14C8C-C827-123B-21FB-2BB7DA14F533","tur":"HALK EKMEK","adi":"HALK EKMEK BAYİİ","adres":"Balkiraz, Kaşif Hoca Sokağı, 06340 Mamak/Ankara","x":null,"y":null,"aktif":true,"mahalle":"ŞAFAKTEPE","aciklama":null}},{"type":"Feature","geometry":{"type":"Point","coordinates":[32.8812609892891,39.934037307128]},"properties":{"oid":152,"global_id":"265FC9E6-CB9B-4AD6-E76D-5897AFADB350","tur":"HALK EKMEK","adi":"HALK EKMEK BAYİİ","adres":"Balkiraz, Mamak Cd. No:2, 06620 Mamak/Ankara","x":null,"y":null,"aktif":true,"mahalle":"BALKİRAZ","aciklama":null}},{"type":"Feature","geometry":{"type":"Point","coordinates":[32.8609847435203,39.9025903791541]},"properties":{"oid":153,"global_id":"57306A1B-0E52-C795-0DDE-1A6099172AB2","tur":"HALK EKMEK","adi":"HALK EKMEK BAYİİ","adres":"Barbaros, İran Cd. No:5, 06690 Çankaya/Ankara","x":null,"y":null,"aktif":true,"mahalle":"BARBAROS","aciklama":null}},{"type":"Feature","geometry":{"type":"Point","coordinates":[32.7939670181259,39.9672385451223]},"properties":{"oid":154,"global_id":"2111B33B-99C4-9184-2458-9AD91F6EB9DE","tur":"HALK EKMEK","adi":"HALK EKMEK BAYİİ","adres":"Barış, 427. Sk. No:6, 06190 Yenimahalle/Ankara","x":null,"y":null,"aktif":true,"mahalle":"BARIŞ","aciklama":null}},{"type":"Feature","geometry":{"type":"Point","coordinates":[32.9614368363171,39.9690172710064]},"properties":{"oid":155,"global_id":"A697F86D-8D0A-F96D-A5A7-066A423F9863","tur":"HALK EKMEK","adi":"HALK EKMEK BAYİİ","adres":"Başak, 06320 Mamak/Ankara","x":null,"y":null,"aktif":true,"mahalle":"BAŞAK","aciklama":null}},{"type":"Feature","geometry":{"type":"Point","coordinates":[32.9219651962746,39.8964826630508]},"properties":{"oid":156,"global_id":"617EFA74-7750-BC9E-E3D1-B24ECCA205C9","tur":"HALK EKMEK","adi":"HALK EKMEK BAYİİ","adres":"Cengizhan, 06480 Mamak/Ankara","x":null,"y":null,"aktif":true,"mahalle":"CENGİZHAN","aciklama":null}},{"type":"Feature","geometry":{"type":"Point","coordinates":[32.8181243231947,39.885109475087]},"properties":{"oid":157,"global_id":"59DCC511-53E2-C275-11CC-F449A0CE41D2","tur":"HALK EKMEK","adi":"HALK EKMEK BAYİİ","adres":"Cevizlidere, 1048. Sk. No:2, 06520 Çankaya/Ankara","x":null,"y":null,"aktif":true,"mahalle":"CEVİZLİDERE","aciklama":null}},{"type":"Feature","geometry":{"type":"Point","coordinates":[32.8574504864809,39.922645555433]},"properties":{"oid":158,"global_id":"CD85B05C-2530-6A8E-B6F0-1807D524F156","tur":"HALK EKMEK","adi":"HALK EKMEK BAYİİ","adres":"Cumhuriyet, 06420 Çankaya/Ankara","x":null,"y":null,"aktif":true,"mahalle":"CUMHURİYET","aciklama":null}},{"type":"Feature","geometry":{"type":"Point","coordinates":[32.8899123579525,39.9879477863348]},"properties":{"oid":159,"global_id":"EF94CF43-30ED-6788-E91E-A2933EE796E3","tur":"HALK EKMEK","adi":"HALK EKMEK BAYİİ","adres":"Çaldıran, Yıldız Cad. Danyıldız Blokları, 06300 Keçiören/Ankara","x":null,"y":null,"aktif":true,"mahalle":"ÇALDIRAN","aciklama":null}},{"type":"Feature","geometry":{"type":"Point","coordinates":[32.8682086339399,39.9249004990618]},"properties":{"oid":160,"global_id":"A4593419-A831-CB4D-34A8-F7562B61B2C6","tur":"HALK EKMEK","adi":"HALK EKMEK BAYİİ","adres":"Çamlıtepe, Kıbrıs Cd. No:20, 06590 Çankaya/Ankara","x":null,"y":null,"aktif":true,"mahalle":"ÖN CEBECİ","aciklama":null}},{"type":"Feature","geometry":{"type":"Point","coordinates":[32.86956801185,39.9074380671875]},"properties":{"oid":161,"global_id":"27AF22B1-EFC3-838A-FC57-0D46AD358640","tur":"HALK EKMEK","adi":"HALK EKMEK BAYİİ","adres":"Çankaya, Belligün Sok. No:13, 06660 Çankaya/Ankara","x":null,"y":null,"aktif":true,"mahalle":"MUHSİN ERTUĞRUL","aciklama":null}},{"type":"Feature","geometry":{"type":"Point","coordinates":[32.8512241253429,39.9179649954056]},"properties":{"oid":162,"global_id":"FD319662-3EF4-8FB4-7A03-F357529FF936","tur":"HALK EKMEK","adi":"HALK EKMEK BAYİİ","adres":"Çankaya, Milli Müdafa Cad., 06930 Çankaya/Ankara","x":null,"y":null,"aktif":true,"mahalle":"NAMIK KEMAL","aciklama":null}},{"type":"Feature","geometry":{"type":"Point","coordinates":[32.8584594700167,39.9153042527226]},"properties":{"oid":163,"global_id":"25800EC0-94CE-757A-EA33-1329AF4E9DC4","tur":"HALK EKMEK","adi":"HALK EKMEK BAYİİ","adres":"Çankaya, Mithatpaşa Cd. Kocatepe Kültür Merkezi No:74, 06420 Çankaya/Ankara","x":null,"y":null,"aktif":true,"mahalle":"KÜLTÜR","aciklama":null}},{"type":"Feature","geometry":{"type":"Point","coordinates":[32.8565274672112,39.9823068286742]},"properties":{"oid":164,"global_id":"EC5CF881-122C-BCB1-2AFF-2B08E46CC023","tur":"HALK EKMEK","adi":"HALK EKMEK BAYİİ","adres":"Çiçekli mah Conker Caddesi &, Akten Sokağı, 06290 Keçiören/Ankara","x":null,"y":null,"aktif":true,"mahalle":"ÇİÇEKLİ","aciklama":null}},{"type":"Feature","geometry":{"type":"Point","coordinates":[32.6031943024707,39.9410321214799]},"properties":{"oid":165,"global_id":"4D609FD0-30BD-C5E8-6D7C-060732331A94","tur":"HALK EKMEK","adi":"HALK EKMEK BAYİİ","adres":"Çukurambar, 1465. Sk. No:1 D:1, 06510 Etimesgut/Ankara","x":null,"y":null,"aktif":true,"mahalle":"OĞUZLAR","aciklama":null}},{"type":"Feature","geometry":{"type":"Point","coordinates":[32.7832882425435,39.9649868420305]},"properties":{"oid":166,"global_id":"AE861B96-2D3F-2C59-7FF6-AC9DD7CFB776","tur":"HALK EKMEK","adi":"HALK EKMEK BAYİİ","adres":"Demetevler, 380. Cd No:33, 06200 Yenimahalle/Ankara","x":null,"y":null,"aktif":true,"mahalle":"DEMETEVLER","aciklama":null}},{"type":"Feature","geometry":{"type":"Point","coordinates":[32.7920279925318,39.9632002922087]},"properties":{"oid":167,"global_id":"F334E81A-B3A8-79CD-F9E6-A66EF8B21CC8","tur":"HALK EKMEK","adi":"HALK EKMEK BAYİİ","adres":"Demetgül, 408. Cd. No:49, 06200 Yenimahalle/Ankara","x":null,"y":null,"aktif":true,"mahalle":"DEMETGÜL","aciklama":null}},{"type":"Feature","geometry":{"type":"Point","coordinates":[32.7949723541794,39.9650067770189]},"properties":{"oid":168,"global_id":"E294C33D-BFF7-B4BF-5F30-F1BFB24666B0","tur":"HALK EKMEK","adi":"HALK EKMEK BAYİİ","adres":"Demetgül, Vatan Cd. No:13, 06200 Yenimahalle/Ankara","x":null,"y":null,"aktif":true,"mahalle":"DEMETGÜL","aciklama":null}},{"type":"Feature","geometry":{"type":"Point","coordinates":[32.8850021686333,39.9240640620844]},"properties":{"oid":169,"global_id":"F1495599-E196-9BD4-51C8-6F63B6AE57F0","tur":"HALK EKMEK","adi":"HALK EKMEK BAYİİ","adres":"Demirlibahçe, 1. Cad., 06340 Mamak/Ankara","x":null,"y":null,"aktif":true,"mahalle":"ABİDİNPAŞA","aciklama":null}},{"type":"Feature","geometry":{"type":"Point","coordinates":[32.929916142537,39.9236231063832]},"properties":{"oid":170,"global_id":"90C4C9F0-62F9-05E3-48C9-9A78F07AE1BB","tur":"HALK EKMEK","adi":"HALK EKMEK BAYİİ","adres":"Derbent, Kayaş Cad., 06270 Mamak/Ankara","x":null,"y":null,"aktif":true,"mahalle":"DERBENT","aciklama":null}},{"type":"Feature","geometry":{"type":"Point","coordinates":[32.8489796355899,39.9461910145631]},"properties":{"oid":171,"global_id":"54ED030D-EB3C-6A1D-EDE3-F4B54F0DBF2A","tur":"HALK EKMEK","adi":"HALK EKMEK BAYİİ","adres":"Doğanbey Mahallesi Kazım Karabekir Caddesi ASKİ Genel Müdürlüğü önü Ulus ANKARA","x":null,"y":null,"aktif":true,"mahalle":"HACI BAYRAM","aciklama":null}},{"type":"Feature","geometry":{"type":"Point","coordinates":[32.8568216765311,39.9447716327101]},"properties":{"oid":172,"global_id":"BA121AB3-7B61-3630-285F-2F92B730104D","tur":"HALK EKMEK","adi":"HALK EKMEK BAYİİ","adres":"Doğanbey, Hükümet Cd. No:18, 06250 Altındağ/Ankara","x":null,"y":null,"aktif":true,"mahalle":"HACI BAYRAM","aciklama":null}},{"type":"Feature","geometry":{"type":"Point","coordinates":[32.9477898253439,39.9653981921937]},"properties":{"oid":174,"global_id":"B202572B-568F-FB90-091E-6E8FE01116E7","tur":"HALK EKMEK","adi":"HALK EKMEK BAYİİ","adres":"Ekin, Bostancık Cd. No:334, 06320 Mamak/Ankara","x":null,"y":null,"aktif":true,"mahalle":"EKİN","aciklama":null}},{"type":"Feature","geometry":{"type":"Point","coordinates":[32.8324873118508,39.9447410658216]},"properties":{"oid":175,"global_id":"068D9C98-1DD6-C4DB-1080-ED9AF9799960","tur":"HALK EKMEK","adi":"HALK EKMEK BAYİİ","adres":"Emniyet Mahallesi Hipodrom Caddesi No : 5/1 Yenimahalle ANKARA","x":null,"y":null,"aktif":true,"mahalle":"ZÜBEYDE HANIM","aciklama":null}},{"type":"Feature","geometry":{"type":"Point","coordinates":[32.7034698695227,39.9603931443364]},"properties":{"oid":176,"global_id":"CE493EF5-32C4-451F-918A-CBB88350A651","tur":"HALK EKMEK","adi":"HALK EKMEK BAYİİ","adres":"Ergazi, 1820. Cd. No:101, 06370 Ostim Osb/Yenimahalle/Ankara","x":null,"y":null,"aktif":true,"mahalle":"BATI SİTESİ","aciklama":null}},{"type":"Feature","geometry":{"type":"Point","coordinates":[32.8042048762743,39.9719751381244]},"properties":{"oid":177,"global_id":"23C808B3-2262-0AEA-5368-97487345D1D8","tur":"HALK EKMEK","adi":"HALK EKMEK BAYİİ","adres":"Ergenekon, 06170 Yenimahalle/Ankara","x":null,"y":null,"aktif":true,"mahalle":"ERGENEKON","aciklama":null}},{"type":"Feature","geometry":{"type":"Point","coordinates":[32.8159052406869,39.9603293265267]},"properties":{"oid":178,"global_id":"44A08B3A-08D2-1757-5B8E-024F123F8E5A","tur":"HALK EKMEK","adi":"HALK EKMEK BAYİİ","adres":"Ergenekon, Ragıp Tüzün Cd. No:2, 06170 Yenimahalle/Ankara","x":null,"y":null,"aktif":true,"mahalle":"IŞINLAR","aciklama":null}},{"type":"Feature","geometry":{"type":"Point","coordinates":[32.6207396983587,39.97331499504]},"properties":{"oid":179,"global_id":"3621BB2E-FB80-3DCF-8383-6241FEB4BE85","tur":"HALK EKMEK","adi":"HALK EKMEK BAYİİ","adres":"Eryaman, Dil Devrimi Cd., 06824 Etimesgut/Ankara","x":null,"y":null,"aktif":true,"mahalle":"ERYAMAN","aciklama":null}},{"type":"Feature","geometry":{"type":"Point","coordinates":[32.8304103623054,39.9829193898198]},"properties":{"oid":180,"global_id":"56CEC426-159B-2916-EF81-5CE4763B3D2A","tur":"HALK EKMEK","adi":"HALK EKMEK BAYİİ","adres":"Etlik, Adnan Yüksel Cd. No:69, 06010 Keçiören/Ankara","x":null,"y":null,"aktif":true,"mahalle":"ETLİK","aciklama":null}},{"type":"Feature","geometry":{"type":"Point","coordinates":[32.8356254642895,39.9826473686306]},"properties":{"oid":181,"global_id":"054AEF1F-F6D8-B0E6-7998-6DE3E9AB5150","tur":"HALK EKMEK","adi":"HALK EKMEK BAYİİ","adres":"Etlik, General Tevfik Sağlam Cad. No:172/A, 06220 Keçiören/Ankara","x":null,"y":null,"aktif":true,"mahalle":"ESERTEPE","aciklama":null}},{"type":"Feature","geometry":{"type":"Point","coordinates":[32.9331335665911,39.9688984014061]},"properties":{"oid":182,"global_id":"2148D9A3-0FFB-F03A-B70A-EDF7E55A7C28","tur":"HALK EKMEK","adi":"HALK EKMEK BAYİİ","adres":"Feridun Çelik, Orhan Kemal Cd. No:211, 06360 Altındağ/Ankara","x":null,"y":null,"aktif":true,"mahalle":"BATTALGAZİ","aciklama":null}},{"type":"Feature","geometry":{"type":"Point","coordinates":[32.8158499042113,39.9579322186314]},"properties":{"oid":183,"global_id":"15AF8873-6E40-4162-3630-FDEF06597657","tur":"HALK EKMEK","adi":"HALK EKMEK BAYİİ","adres":"Gayret, İstanbul Cad., 06170 Yenimahalle/Ankara","x":null,"y":null,"aktif":true,"mahalle":"GAYRET","aciklama":null}},{"type":"Feature","geometry":{"type":"Point","coordinates":[32.8165908568805,39.9578857621881]},"properties":{"oid":184,"global_id":"E50B5329-8502-3CD3-525C-A352398556BE","tur":"HALK EKMEK","adi":"HALK EKMEK BAYİİ","adres":"Gayret, İvedik Cd. 11 A, 06170 Yenimahalle/Ankara","x":null,"y":null,"aktif":true,"mahalle":"GAYRET","aciklama":null}},{"type":"Feature","geometry":{"type":"Point","coordinates":[32.807397062305,39.9629476789465]},"properties":{"oid":185,"global_id":"3CC20D56-C5AC-9FB0-7822-9F2846160301","tur":"HALK EKMEK","adi":"HALK EKMEK BAYİİ","adres":"Gayret, İvedik Cd. No:45, 06170 Yenimahalle/Ankara","x":null,"y":null,"aktif":true,"mahalle":"GAYRET","aciklama":null}},{"type":"Feature","geometry":{"type":"Point","coordinates":[32.8261986469611,39.9455472492726]},"properties":{"oid":186,"global_id":"DA6A2845-4BE5-7B5E-FE95-2621271E5D57","tur":"HALK EKMEK","adi":"HALK EKMEK BAYİİ","adres":"Gazi, Gazi Blv. No:2013, 06560 Yenimahalle/Ankara","x":null,"y":null,"aktif":true,"mahalle":"GAZİ","aciklama":null}},{"type":"Feature","geometry":{"type":"Point","coordinates":[32.8151259199759,39.9429182820387]},"properties":{"oid":187,"global_id":"47A99FC7-AEF3-4FAB-CDC5-77225729B6F6","tur":"HALK EKMEK","adi":"HALK EKMEK BAYİİ","adres":"Gazi, Silahtar Cd. No:72, 06560 Yenimahalle/Ankara","x":null,"y":null,"aktif":true,"mahalle":"GAZİ","aciklama":null}},{"type":"Feature","geometry":{"type":"Point","coordinates":[32.9005570207127,39.9172722723896]},"properties":{"oid":188,"global_id":"55BEDA68-DE76-E251-4B6B-09D862123499","tur":"HALK EKMEK","adi":"HALK EKMEK BAYİİ","adres":"General Zeki Doğan, 489. Sk. No:1, 06630 Mamak/Ankara","x":null,"y":null,"aktif":true,"mahalle":"GENERAL ZEKİ DOĞAN","aciklama":null}},{"type":"Feature","geometry":{"type":"Point","coordinates":[32.9112367623032,39.9098876642066]},"properties":{"oid":189,"global_id":"AF3CBD08-6510-1C94-E9EB-2B56206BF810","tur":"HALK EKMEK","adi":"HALK EKMEK BAYİİ","adres":"General Zeki Doğan, 551. Cd. No:22, 06630 Mamak/Ankara","x":null,"y":null,"aktif":true,"mahalle":"GENERAL ZEKİ DOĞAN","aciklama":null}},{"type":"Feature","geometry":{"type":"Point","coordinates":[32.912804569564,39.9132471483112]},"properties":{"oid":190,"global_id":"C253DFB3-D8BE-E08A-51CD-790516ACA565","tur":"HALK EKMEK","adi":"HALK EKMEK BAYİİ","adres":"General Zeki Doğan, Natoyolu Caddesı, 06630 Mamak/Ankara","x":null,"y":null,"aktif":true,"mahalle":"GENERAL ZEKİ DOĞAN","aciklama":null}},{"type":"Feature","geometry":{"type":"Point","coordinates":[32.8157631576702,39.8764750017087]},"properties":{"oid":191,"global_id":"897F031F-45B4-AC53-43FA-7A5266C47728","tur":"HALK EKMEK","adi":"HALK EKMEK BAYİİ","adres":"Gökkuşağı Mh, 06460 Çankaya/Ankara","x":null,"y":null,"aktif":true,"mahalle":"GÖKKUŞAĞI","aciklama":null}},{"type":"Feature","geometry":{"type":"Point","coordinates":[32.8707781848665,39.9880824846119]},"properties":{"oid":193,"global_id":"283025D6-68F3-A59D-D3CB-888B2C258158","tur":"HALK EKMEK","adi":"HALK EKMEK BAYİİ","adres":"Güçlükaya Mahallesi Çekirge Caddesi &, Kalan Sk., 06310 Keçiören/Ankara","x":null,"y":null,"aktif":true,"mahalle":"YAKACIK","aciklama":null}},{"type":"Feature","geometry":{"type":"Point","coordinates":[32.8815994560297,39.9435388139366]},"properties":{"oid":194,"global_id":"9D924F45-FC24-C309-6630-385C31046BE6","tur":"HALK EKMEK","adi":"HALK EKMEK BAYİİ","adres":"Gültepe, 734. Cd. No:4, 06080 Altındağ/Ankara","x":null,"y":null,"aktif":true,"mahalle":"GÜLTEPE","aciklama":null}},{"type":"Feature","geometry":{"type":"Point","coordinates":[32.9725212334675,39.911519341294]},"properties":{"oid":195,"global_id":"E0B1A431-C758-9DB4-8A1D-810444277C2C","tur":"HALK EKMEK","adi":"HALK EKMEK BAYİİ","adres":"Gülveren, 73. Sok. 1/A, 06350 Mamak/Ankara","x":null,"y":null,"aktif":true,"mahalle":"KÜÇÜK KAYAŞ","aciklama":null}},{"type":"Feature","geometry":{"type":"Point","coordinates":[32.8769459935404,39.9358744272343]},"properties":{"oid":196,"global_id":"44E88BB8-6D99-78A3-A5FF-F6F4A4840CF1","tur":"HALK EKMEK","adi":"HALK EKMEK BAYİİ","adres":"Gülveren, Plevne Cd., 06350 Mamak/Ankara","x":null,"y":null,"aktif":true,"mahalle":"DEMİRLİBAHÇE","aciklama":null}},{"type":"Feature","geometry":{"type":"Point","coordinates":[32.8882826437911,39.9719467633293]},"properties":{"oid":197,"global_id":"6CB5AB75-96F6-A5E5-BCC9-20F79C39A7A6","tur":"HALK EKMEK","adi":"HALK EKMEK BAYİİ","adres":"Güneşevler, 06140 Altındağ/Ankara","x":null,"y":null,"aktif":true,"mahalle":"GÜNEŞEVLER","aciklama":null}},{"type":"Feature","geometry":{"type":"Point","coordinates":[32.8043454181263,39.9811054266941]},"properties":{"oid":198,"global_id":"DEE9DFA0-88BB-4A01-C0A7-D6FAA36EB89D","tur":"HALK EKMEK","adi":"HALK EKMEK BAYİİ","adres":"Güventepe, 608. Sk. No:71, 06210 Yenimahalle/Ankara","x":null,"y":null,"aktif":true,"mahalle":"GÜVENTEPE","aciklama":null}},{"type":"Feature","geometry":{"type":"Point","coordinates":[32.9112678226109,39.909787143206]},"properties":{"oid":199,"global_id":"658A0EC6-BD38-50EA-3345-FD3AF8B7FDAC","tur":"HALK EKMEK","adi":"HALK EKMEK BAYİİ","adres":"Hacettepe, Celal Bayar Blv. No:3, 06230 Altındağ/Ankara","x":null,"y":null,"aktif":true,"mahalle":"GENERAL ZEKİ DOĞAN","aciklama":null}},{"type":"Feature","geometry":{"type":"Point","coordinates":[32.8366867456797,39.8942285231411]},"properties":{"oid":200,"global_id":"C7B184D9-91AC-5348-C095-B6CBE7E7AD90","tur":"HALK EKMEK","adi":"HALK EKMEK BAYİİ","adres":"Harbiye, Hürriyet Cd. No:15, 06460 Çankaya/Ankara","x":null,"y":null,"aktif":true,"mahalle":"HARBİYE","aciklama":null}},{"type":"Feature","geometry":{"type":"Point","coordinates":[32.8901839941903,39.9434293123887]},"properties":{"oid":201,"global_id":"1D8686EF-8D1C-4DBB-401A-DF14A545BB6A","tur":"HALK EKMEK","adi":"HALK EKMEK BAYİİ","adres":"Harman, Plevne Cd., 06340 Mamak/Ankara","x":null,"y":null,"aktif":true,"mahalle":"GÜLVEREN","aciklama":null}},{"type":"Feature","geometry":{"type":"Point","coordinates":[32.9028576506758,39.9460484204489]},"properties":{"oid":202,"global_id":"3F08B3D1-034E-58F8-92C6-B52E4CFC58F4","tur":"HALK EKMEK","adi":"HALK EKMEK BAYİİ","adres":"Hürel mah, Abdülhakhamit Cd., 06340 Mamak/Ankara","x":null,"y":null,"aktif":true,"mahalle":"DİRİLİŞ","aciklama":null}},{"type":"Feature","geometry":{"type":"Point","coordinates":[32.9468567590714,39.96495084515]},"properties":{"oid":203,"global_id":"304B9A4C-636E-E8D2-28B8-405BDCC31A4C","tur":"HALK EKMEK","adi":"HALK EKMEK BAYİİ","adres":"Hüseyingazi, Mamak Caddesi, Taksi duraği karşisi, 06260 Mamak/Ankara","x":null,"y":null,"aktif":true,"mahalle":"EKİN","aciklama":null}},{"type":"Feature","geometry":{"type":"Point","coordinates":[32.8703286430682,39.9219556717759]},"properties":{"oid":204,"global_id":"956B9C6D-027C-E200-9B6A-4103A9924E78","tur":"HALK EKMEK","adi":"HALK EKMEK BAYİİ","adres":"İleri, Mektep Sokağı No:26, 06590 Çankaya/Ankara","x":null,"y":null,"aktif":true,"mahalle":"İLERİ","aciklama":null}},{"type":"Feature","geometry":{"type":"Point","coordinates":[32.7318918780701,39.9669432352604]},"properties":{"oid":205,"global_id":"1ED6765D-6DAD-75CC-F597-F66336892B54","tur":"HALK EKMEK","adi":"HALK EKMEK BAYİİ","adres":"İlkyerleşim, 1869 Sk. Oleyis-1 Sitesi No:3, 06370 Yenimahalle/Ankara","x":null,"y":null,"aktif":true,"mahalle":"İLKYERLEŞİM","aciklama":null}},{"type":"Feature","geometry":{"type":"Point","coordinates":[32.7264670448096,39.9744653522278]},"properties":{"oid":206,"global_id":"7EF9C39D-663B-1416-1800-660C77B2FA11","tur":"HALK EKMEK","adi":"HALK EKMEK BAYİİ","adres":"İlkyerleşim, 2002. Sk. No:1, 06370 Yenimahalle/Ankara","x":null,"y":null,"aktif":true,"mahalle":"İLKYERLEŞİM","aciklama":null}},{"type":"Feature","geometry":{"type":"Point","coordinates":[32.8447008905751,39.9841791439388]},"properties":{"oid":207,"global_id":"7E56FE92-301B-6C2A-E764-327349446C23","tur":"HALK EKMEK","adi":"HALK EKMEK BAYİİ","adres":"İncirli, 06010 Keçiören/Ankara","x":null,"y":null,"aktif":true,"mahalle":"İNCİRLİ","aciklama":null}},{"type":"Feature","geometry":{"type":"Point","coordinates":[32.8495215525199,39.9871483954535]},"properties":{"oid":208,"global_id":"56C4A30A-30BC-2CAA-D08F-96347B132B54","tur":"HALK EKMEK","adi":"HALK EKMEK BAYİİ","adres":"İncirli, 19 Mayıs Cd. 23/625, 06010 Keçiören/Ankara","x":null,"y":null,"aktif":true,"mahalle":"19 MAYIS","aciklama":null}},{"type":"Feature","geometry":{"type":"Point","coordinates":[32.8387315737479,39.9818451242573]},"properties":{"oid":209,"global_id":"5DC524DC-F91B-87FA-263F-FA66DD19C199","tur":"HALK EKMEK","adi":"HALK EKMEK BAYİİ","adres":"İncirli, Barış Yolu Cd. 8/B, 06010 Keçiören/Ankara","x":null,"y":null,"aktif":true,"mahalle":"İNCİRLİ","aciklama":null}},{"type":"Feature","geometry":{"type":"Point","coordinates":[32.8278335232541,39.9156608103815]},"properties":{"oid":210,"global_id":"C7B00FD6-4CD2-B24E-3F6B-EA001B5DF8DC","tur":"HALK EKMEK","adi":"HALK EKMEK BAYİİ","adres":"İnönü Mahallesi Milli Kütüphane Yanı No: C-R-G Çankaya ANKARA","x":null,"y":null,"aktif":true,"mahalle":"EMEK","aciklama":null}},{"type":"Feature","geometry":{"type":"Point","coordinates":[32.8606649268724,39.9168929427107]},"properties":{"oid":211,"global_id":"A0380F05-7A46-0E4F-2943-39CA7C0827F9","tur":"HALK EKMEK","adi":"HALK EKMEK BAYİİ","adres":"İnönü Mahallesi No:35, 06660 Çankaya/Ankara","x":null,"y":null,"aktif":true,"mahalle":"KÜLTÜR","aciklama":null}},{"type":"Feature","geometry":{"type":"Point","coordinates":[32.724472257345,39.9528781798725]},"properties":{"oid":212,"global_id":"97145703-7653-A305-BC92-9DFF08CD8CDB","tur":"HALK EKMEK","adi":"HALK EKMEK BAYİİ","adres":"İnönü, 1617. Cd, 06370 Batıkent - Yenimahalle/Yenimahalle/Ankara","x":null,"y":null,"aktif":true,"mahalle":"İNÖNÜ","aciklama":null}},{"type":"Feature","geometry":{"type":"Point","coordinates":[32.6590876492638,39.940066942933]},"properties":{"oid":213,"global_id":"09749A3E-E983-E0A5-1689-2402B8AC0C23","tur":"HALK EKMEK","adi":"HALK EKMEK BAYİİ","adres":"İstasyon, 2330. Sk. No:1, 06790 Etimesgut/Ankara","x":null,"y":null,"aktif":true,"mahalle":"İSTASYON","aciklama":null}},{"type":"Feature","geometry":{"type":"Point","coordinates":[32.8513909169125,40.0357341477103]},"properties":{"oid":214,"global_id":"80ECB681-B69E-10B9-CFA5-D635F6EDF436","tur":"HALK EKMEK","adi":"HALK EKMEK BAYİİ","adres":"Kafkas, Kafkas Cd. No:10, 06291 Keçiören/Ankara","x":null,"y":null,"aktif":true,"mahalle":"KAFKAS","aciklama":null}},{"type":"Feature","geometry":{"type":"Point","coordinates":[32.8648458537198,39.9766528903873]},"properties":{"oid":215,"global_id":"B811B92D-54A1-6BE4-F99A-3E2F263C5504","tur":"HALK EKMEK","adi":"HALK EKMEK BAYİİ","adres":"Kalaba, Ahmet Vefik Paşa Cd. & Haneli Sk., 06120 Keçiören/Ankara","x":null,"y":null,"aktif":true,"mahalle":"KALABA","aciklama":null}},{"type":"Feature","geometry":{"type":"Point","coordinates":[32.8616965863986,39.9705691262241]},"properties":{"oid":216,"global_id":"D0A0E639-1EC8-E252-4EFD-FCAA69F44A0F","tur":"HALK EKMEK","adi":"HALK EKMEK BAYİİ","adres":"Kalaba, Kütükçü Alibey Cd. No:6, 06120 Keçiören/Ankara","x":null,"y":null,"aktif":true,"mahalle":"KALABA","aciklama":null}},{"type":"Feature","geometry":{"type":"Point","coordinates":[32.6895408110271,39.9639776048394]},"properties":{"oid":217,"global_id":"F77CA256-8F63-702F-BE74-7EB47E7D44B0","tur":"HALK EKMEK","adi":"HALK EKMEK BAYİİ","adres":"Kardelen Mah. Okul Sitesi, Batıkent, Yenimahalle, Ankara","x":null,"y":null,"aktif":true,"mahalle":"BATI SİTESİ","aciklama":null}},{"type":"Feature","geometry":{"type":"Point","coordinates":[32.7164269241527,39.9839810409605]},"properties":{"oid":218,"global_id":"21A0290D-6556-B3B2-DD4C-74C05C1BC706","tur":"HALK EKMEK","adi":"HALK EKMEK BAYİİ","adres":"Kardelen, 20. Cd. 46 A, 06370 Yenimahalle/Ankara","x":null,"y":null,"aktif":true,"mahalle":"TURGUT ÖZAL","aciklama":null}},{"type":"Feature","geometry":{"type":"Point","coordinates":[32.7050301310767,39.9752673182869]},"properties":{"oid":219,"global_id":"0550CF19-614B-0598-9B2F-D36DDB22FFFA","tur":"HALK EKMEK","adi":"HALK EKMEK BAYİİ","adres":"Kardelen, 2037. Sk., 06370 Yenimahalle/Ankara","x":null,"y":null,"aktif":true,"mahalle":"KARDELEN","aciklama":null}},{"type":"Feature","geometry":{"type":"Point","coordinates":[32.7055006732679,39.9707296759311]},"properties":{"oid":220,"global_id":"BF1EF4C3-9992-5353-1444-620ED5C096AF","tur":"HALK EKMEK","adi":"HALK EKMEK BAYİİ","adres":"Kardelen, Başkent Blv. No:38, 06370 Yenimahalle/Ankara","x":null,"y":null,"aktif":true,"mahalle":"KARDELEN","aciklama":null}},{"type":"Feature","geometry":{"type":"Point","coordinates":[32.6938607270677,39.9819631979494]},"properties":{"oid":221,"global_id":"A7D6F47E-7FB2-EA05-1EC3-0D424DAE7608","tur":"HALK EKMEK","adi":"HALK EKMEK BAYİİ","adres":"Kardelen, İpek Yolu Sk., 06370 Yenimahalle/Ankara","x":null,"y":null,"aktif":true,"mahalle":"KARDELEN","aciklama":null}},{"type":"Feature","geometry":{"type":"Point","coordinates":[32.8709091293282,39.9701168488899]},"properties":{"oid":222,"global_id":"786503CC-C17C-B6EC-CFCC-E840CB77E2D2","tur":"HALK EKMEK","adi":"HALK EKMEK BAYİİ","adres":"Kavacık Subayevleri, 06120 Keçiören/Ankara","x":null,"y":null,"aktif":true,"mahalle":"KAVACIK SUBAYEVLERİ","aciklama":null}},{"type":"Feature","geometry":{"type":"Point","coordinates":[32.8148741699078,39.856908539792]},"properties":{"oid":223,"global_id":"C3296A35-E147-0457-D252-5030B6EAEFC7","tur":"HALK EKMEK","adi":"HALK EKMEK BAYİİ","adres":"Keklik Pınarı, 873. Sk. No:11, 06450 Çankaya/Ankara","x":null,"y":null,"aktif":true,"mahalle":"KEKLİK PINARI","aciklama":null}},{"type":"Feature","geometry":{"type":"Point","coordinates":[32.8184281924072,39.8634510555708]},"properties":{"oid":224,"global_id":"4B9D28E2-182D-7858-6D1E-FA8158414DB0","tur":"HALK EKMEK","adi":"HALK EKMEK BAYİİ","adres":"Keklik Pınarı, Dikmen Cd. No:449, 06450 Çankaya/Ankara","x":null,"y":null,"aktif":true,"mahalle":"KEKLİK PINARI","aciklama":null}},{"type":"Feature","geometry":{"type":"Point","coordinates":[32.7472795639099,39.9646997883146]},"properties":{"oid":225,"global_id":"3EF30B07-9E91-BA5C-C2C0-075B88E74FCC","tur":"HALK EKMEK","adi":"HALK EKMEK BAYİİ","adres":"Kentkoop Mah., Başkent Blv. 26/1, 06374 Yenimahalle/Ankara","x":null,"y":null,"aktif":true,"mahalle":"OSTİM OSB","aciklama":null}},{"type":"Feature","geometry":{"type":"Point","coordinates":[32.7258774065621,39.9651937356162]},"properties":{"oid":226,"global_id":"E27D7320-E470-A5F1-7674-79F746931326","tur":"HALK EKMEK","adi":"HALK EKMEK BAYİİ","adres":"Kentkoop, 06370 Yenimahalle/Ankara","x":null,"y":null,"aktif":true,"mahalle":"KENTKOOP","aciklama":null}},{"type":"Feature","geometry":{"type":"Point","coordinates":[32.6890627967953,39.8840351979568]},"properties":{"oid":227,"global_id":"C2C7C669-4547-DE34-6438-45A31B9D746C","tur":"HALK EKMEK","adi":"HALK EKMEK BAYİİ","adres":"Koru, 2580. Sk. No:11, 06810 Yenimahalle/Ankara","x":null,"y":null,"aktif":true,"mahalle":"KORU","aciklama":null}},{"type":"Feature","geometry":{"type":"Point","coordinates":[32.8583218113514,39.9213918519996]},"properties":{"oid":228,"global_id":"A1EF3C2F-B337-33FA-0239-C74CB2E10CF4","tur":"HALK EKMEK","adi":"HALK EKMEK BAYİİ","adres":"Kültür Mahallesi Mithatpaşa Caddesi No: 42/1 Çankaya ANKARA","x":null,"y":null,"aktif":true,"mahalle":"KÜLTÜR","aciklama":null}},{"type":"Feature","geometry":{"type":"Point","coordinates":[32.8633915760455,39.9222788033152]},"properties":{"oid":229,"global_id":"628A6614-8C8C-CA4B-D75F-6AA2F1B61A10","tur":"HALK EKMEK","adi":"HALK EKMEK BAYİİ","adres":"Kültür, Libya Cd. 2 A, 06420 Çankaya/Ankara","x":null,"y":null,"aktif":true,"mahalle":"KÜLTÜR","aciklama":null}},{"type":"Feature","geometry":{"type":"Point","coordinates":[32.8477542580098,39.9258476573968]},"properties":{"oid":230,"global_id":"837A2C52-74F6-BCC5-90E0-0A01F70AF2A9","tur":"HALK EKMEK","adi":"HALK EKMEK BAYİİ","adres":"Maltepe, Şht. Danış Tunalıgil Sk. No:2, 06570 Çankaya/Ankara","x":null,"y":null,"aktif":true,"mahalle":"ETİ","aciklama":null}},{"type":"Feature","geometry":{"type":"Point","coordinates":[32.7763147181258,39.9642074371493]},"properties":{"oid":231,"global_id":"873534E2-07A7-9108-C9A7-C3E175159BFD","tur":"HALK EKMEK","adi":"HALK EKMEK BAYİİ","adres":"Mehmet Akif Ersoy, 266. Cd. 7 A, 06200 Yenimahalle/Ankara","x":null,"y":null,"aktif":true,"mahalle":"MEHMET AKİF ERSOY","aciklama":null}},{"type":"Feature","geometry":{"type":"Point","coordinates":[32.8953314044291,39.9346678774442]},"properties":{"oid":232,"global_id":"B8ED7B3A-84CF-DE75-B712-79463446A26D","tur":"HALK EKMEK","adi":"HALK EKMEK BAYİİ","adres":"Mehtap, Asım Gündüz Cd. No:92, 06620 Mamak/Ankara","x":null,"y":null,"aktif":true,"mahalle":"BALKİRAZ","aciklama":null}},{"type":"Feature","geometry":{"type":"Point","coordinates":[32.8829659670525,40.03197935774]},"properties":{"oid":233,"global_id":"517EBFCD-68E3-EEC5-D649-84B884FAE25B","tur":"HALK EKMEK","adi":"HALK EKMEK BAYİİ","adres":"Merkez, Yıldız Cd. No:21, 06145 Pursaklar/Ankara","x":null,"y":null,"aktif":true,"mahalle":"MİMAR SİNAN","aciklama":null}},{"type":"Feature","geometry":{"type":"Point","coordinates":[32.905358494297,39.9106864499453]},"properties":{"oid":236,"global_id":"2BD77ADA-0C5F-016A-6FB6-ACB41CD102B2","tur":"HALK EKMEK","adi":"HALK EKMEK BAYİİ","adres":"Mutlu, İmam Alim Sultan Cd. No:62 D:2, 06630 Mamak/Ankara","x":null,"y":null,"aktif":true,"mahalle":"MUTLU","aciklama":null}},{"type":"Feature","geometry":{"type":"Point","coordinates":[32.8478383504606,39.8753437590477]},"properties":{"oid":238,"global_id":"90B3F13F-34A1-2CFA-D751-9D0A78CA6659","tur":"HALK EKMEK","adi":"HALK EKMEK BAYİİ","adres":"Naci Çakır, Sinan Cd. No:68, 06450 Çankaya/Ankara","x":null,"y":null,"aktif":true,"mahalle":"NACİ ÇAKIR","aciklama":null}},{"type":"Feature","geometry":{"type":"Point","coordinates":[32.6100401054188,39.9476440521596]},"properties":{"oid":239,"global_id":"411E834D-5A2D-533E-5299-8F10648A8269","tur":"HALK EKMEK","adi":"HALK EKMEK BAYİİ","adres":"Oğuzlar, 06796 Etimesgut/Ankara","x":null,"y":null,"aktif":true,"mahalle":"OĞUZLAR","aciklama":null}},{"type":"Feature","geometry":{"type":"Point","coordinates":[32.8183090899752,39.904190370443]},"properties":{"oid":240,"global_id":"323FF793-47F1-5D36-F986-32196B5878B6","tur":"HALK EKMEK","adi":"HALK EKMEK BAYİİ","adres":"Oğuzlar, 1388. Sk. No:22, 06520 Çankaya/Ankara","x":null,"y":null,"aktif":true,"mahalle":"OĞUZLAR","aciklama":null}},{"type":"Feature","geometry":{"type":"Point","coordinates":[32.8608915771078,40.0159177783149]},"properties":{"oid":241,"global_id":"85CDA60A-58C6-6F05-11A7-3B78081F0D33","tur":"HALK EKMEK","adi":"HALK EKMEK BAYİİ","adres":"Osmangazi, 06300 Keçiören/Ankara","x":null,"y":null,"aktif":true,"mahalle":"OSMANGAZİ","aciklama":null}},{"type":"Feature","geometry":{"type":"Point","coordinates":[32.5904440415348,39.9462541007527]},"properties":{"oid":242,"global_id":"D6B9A562-FEFA-B8A9-AF25-20CC516B6E8D","tur":"HALK EKMEK","adi":"HALK EKMEK BAYİİ","adres":"Osmanlı, Hürriyet Cd. No:72, 06930 Sincan Osb/Sincan/Ankara","x":null,"y":null,"aktif":true,"mahalle":"OSMANLI","aciklama":null}},{"type":"Feature","geometry":{"type":"Point","coordinates":[32.7650456695231,39.9835183360272]},"properties":{"oid":243,"global_id":"97FE2092-BC2B-F6D3-1BD4-6738461D81E5","tur":"HALK EKMEK","adi":"HALK EKMEK BAYİİ","adres":"Ostim, 1300. Sk. No:18, 06374 Yenimahalle/Ankara","x":null,"y":null,"aktif":true,"mahalle":"SERHAT","aciklama":null}},{"type":"Feature","geometry":{"type":"Point","coordinates":[32.8370954569392,40.0098389303462]},"properties":{"oid":245,"global_id":"756988A4-E456-DEB7-3999-67B0C671D6E9","tur":"HALK EKMEK","adi":"HALK EKMEK BAYİİ","adres":"Ovacık, 580. Cd. No:2, 06290 Keçiören/Ankara","x":null,"y":null,"aktif":true,"mahalle":"OVACIK","aciklama":null}},{"type":"Feature","geometry":{"type":"Point","coordinates":[32.8672888255921,39.9271739681133]},"properties":{"oid":246,"global_id":"F6D8ED3E-4D3D-E767-FE6A-0D8D265E932E","tur":"HALK EKMEK","adi":"HALK EKMEK BAYİİ","adres":"Ön Cebeci, Kıbrıs Cd. No:2, 06590 Çankaya/Ankara","x":null,"y":null,"aktif":true,"mahalle":"ÖN CEBECİ","aciklama":null}},{"type":"Feature","geometry":{"type":"Point","coordinates":[32.8737743628507,39.9527828281817]},"properties":{"oid":247,"global_id":"4734EC50-3F6F-6DBF-0C07-5D626E55A5EA","tur":"HALK EKMEK","adi":"HALK EKMEK BAYİİ","adres":"Örnek, Oruç Reis Cd. No:1, 06090 Altındağ/Ankara","x":null,"y":null,"aktif":true,"mahalle":"ÖRNEK","aciklama":null}},{"type":"Feature","geometry":{"type":"Point","coordinates":[32.860547211852,40.0077269969464]},"properties":{"oid":248,"global_id":"5FAD9424-3DFD-65D0-A732-E71DE0F00A9A","tur":"HALK EKMEK","adi":"HALK EKMEK BAYİİ","adres":"Pınarbaşı, Atlılar Sk. No:36, 06280 Keçiören/Ankara","x":null,"y":null,"aktif":true,"mahalle":"OSMANGAZİ","aciklama":null}},{"type":"Feature","geometry":{"type":"Point","coordinates":[32.6655099820297,39.9515764606873]},"properties":{"oid":249,"global_id":"BA13DCD6-F319-8708-03E6-3AA33FB6C82A","tur":"HALK EKMEK","adi":"HALK EKMEK BAYİİ","adres":"Piyade, 06790 Etimesgut/Ankara","x":null,"y":null,"aktif":true,"mahalle":"ETİLER","aciklama":null}},{"type":"Feature","geometry":{"type":"Point","coordinates":[32.6270515143239,39.9487188357112]},"properties":{"oid":250,"global_id":"AA912240-7B81-A62A-0877-86177C0A1C09","tur":"HALK EKMEK","adi":"HALK EKMEK BAYİİ","adres":"Prof. Dr. Ahmet Taner Kışlalı, İller Sitesi 2-7, 06810 Yenimahalle/Ankara","x":null,"y":null,"aktif":true,"mahalle":"ELVAN","aciklama":null}},{"type":"Feature","geometry":{"type":"Point","coordinates":[32.8108248669433,39.7947173229379]},"properties":{"oid":251,"global_id":"A8DCA0D3-A078-C423-5CB8-11EF7E877207","tur":"HALK EKMEK","adi":"HALK EKMEK BAYİİ","adres":"Seğmenler, 914. Sk. No:20, 06830 Gölbaşı/Ankara","x":null,"y":null,"aktif":true,"mahalle":"SEĞMENLER","aciklama":null}},{"type":"Feature","geometry":{"type":"Point","coordinates":[32.8703994689474,39.9121179606372]},"properties":{"oid":252,"global_id":"4C802DBD-503F-9615-86A4-761AC7F630F6","tur":"HALK EKMEK","adi":"HALK EKMEK BAYİİ","adres":"Seyranbağları Mah., Bağlar Cad. No:103, 06660 Çankaya/Ankara","x":null,"y":null,"aktif":true,"mahalle":"SEYRANBAĞLARI","aciklama":null}},{"type":"Feature","geometry":{"type":"Point","coordinates":[32.8906981984849,39.9368304200918]},"properties":{"oid":253,"global_id":"ACCA2DC0-1EBB-8B6D-BCA4-D826B565CD51","tur":"HALK EKMEK","adi":"HALK EKMEK BAYİİ","adres":"Şafaktepe, Sarayönü Sk. No:2, 06340 Mamak/Ankara","x":null,"y":null,"aktif":true,"mahalle":"ŞAFAKTEPE","aciklama":null}},{"type":"Feature","geometry":{"type":"Point","coordinates":[32.9519942428326,39.9074277473694]},"properties":{"oid":254,"global_id":"C5EC48A6-DCBC-95B7-828D-D50E2BD2F244","tur":"HALK EKMEK","adi":"HALK EKMEK BAYİİ","adres":"Şahap Gürler, 1203. Sk. No:1, 06270 Mamak/Ankara","x":null,"y":null,"aktif":true,"mahalle":"ŞAHAP GÜRLER","aciklama":null}},{"type":"Feature","geometry":{"type":"Point","coordinates":[32.9121632608601,39.921395588381]},"properties":{"oid":255,"global_id":"56869BAB-C83F-B9CE-4FB8-4FDB8CFBA883","tur":"HALK EKMEK","adi":"HALK EKMEK BAYİİ","adres":"Şahintepe, 638. Cd. No:3, 06470, 06470 Mamak/Ankara","x":null,"y":null,"aktif":true,"mahalle":"ŞAHİNTEPE","aciklama":null}},{"type":"Feature","geometry":{"type":"Point","coordinates":[32.9122293540085,39.9166035194062]},"properties":{"oid":256,"global_id":"8EE965DE-A878-FCDA-DA87-43B0E8A6B739","tur":"HALK EKMEK","adi":"HALK EKMEK BAYİİ","adres":"Şahintepe, Natoyolu Caddesı No:91, 06470 Mamak/Ankara","x":null,"y":null,"aktif":true,"mahalle":"ŞAHİNTEPE","aciklama":null}},{"type":"Feature","geometry":{"type":"Point","coordinates":[32.7606971677629,39.9860330240307]},"properties":{"oid":244,"global_id":"3309CF0A-4DE7-9EFD-E885-E5CFB8835D8A","tur":"HALK EKMEK","adi":"HALK EKMEK BAYİİ","adres":"Ostim, 90. Sk., 06374 Yenimahalle/Ankara","x":null,"y":null,"aktif":true,"mahalle":"SERHAT","aciklama":null}},{"type":"Feature","geometry":{"type":"Point","coordinates":[32.8778833824853,39.9758455592151]},"properties":{"oid":257,"global_id":"F2702AC1-EF2B-0F93-AD9B-20DD20C1F750","tur":"HALK EKMEK","adi":"HALK EKMEK BAYİİ","adres":"Şefkat, Dr. Besim Ömer Cd. 46/1, 06300 Keçiören/Ankara","x":null,"y":null,"aktif":true,"mahalle":"ŞEFKAT","aciklama":null}},{"type":"Feature","geometry":{"type":"Point","coordinates":[32.8003036979007,39.9937463292088]},"properties":{"oid":258,"global_id":"8D7B2783-23CA-25F9-C953-1A8F7FB96984","tur":"HALK EKMEK","adi":"HALK EKMEK BAYİİ","adres":"Şehit Kubilay, 1740. Sk. No:2, 06220 İvedik Osb/Keçiören/Ankara","x":null,"y":null,"aktif":true,"mahalle":"ŞEHİT KUBİLAY","aciklama":null}},{"type":"Feature","geometry":{"type":"Point","coordinates":[32.6267879497398,39.9982154478518]},"properties":{"oid":259,"global_id":"6A3B8468-87A1-7D01-6A1B-507420F9F471","tur":"HALK EKMEK","adi":"HALK EKMEK BAYİİ","adres":"Şeyh Şamil, 06824 Etimesgut/Ankara","x":null,"y":null,"aktif":true,"mahalle":"ŞEYH ŞAMİL","aciklama":null}},{"type":"Feature","geometry":{"type":"Point","coordinates":[32.6267869344355,39.9982107841981]},"properties":{"oid":260,"global_id":"093B2EBD-B515-8144-0E78-1C932BC0CA6E","tur":"HALK EKMEK","adi":"HALK EKMEK BAYİİ","adres":"Şeyh Şamil, Bozhöyük Cd. No:101 D:99, 06824 Etimesgut/Ankara","x":null,"y":null,"aktif":true,"mahalle":"ŞEYH ŞAMİL","aciklama":null}},{"type":"Feature","geometry":{"type":"Point","coordinates":[32.8631978603595,39.9951915816316]},"properties":{"oid":261,"global_id":"7B7A69F7-2AC4-3189-A0C5-94F96F2DCF84","tur":"HALK EKMEK","adi":"HALK EKMEK BAYİİ","adres":"Tepebaşı, Fatih Cd. 155/A, 06280 Keçiören/Ankara","x":null,"y":null,"aktif":true,"mahalle":"TEPEBAŞI","aciklama":null}},{"type":"Feature","geometry":{"type":"Point","coordinates":[32.8605175723438,39.9877863738301]},"properties":{"oid":262,"global_id":"6EFD0C0A-DDF3-DAB9-C78A-BF68A5E26DEA","tur":"HALK EKMEK","adi":"HALK EKMEK BAYİİ","adres":"Tepebaşı, Foça Sokağı No:38, 06290 Keçiören/Ankara","x":null,"y":null,"aktif":true,"mahalle":"TEPEBAŞI","aciklama":null}},{"type":"Feature","geometry":{"type":"Point","coordinates":[32.9641413193466,39.9288977050011]},"properties":{"oid":263,"global_id":"C96591C1-A63F-BE3D-A052-8F801D6E1125","tur":"HALK EKMEK","adi":"HALK EKMEK BAYİİ","adres":"Tepecik, Bedrettin Cömert Cd. No:240, 06270 Mamak/Ankara","x":null,"y":null,"aktif":true,"mahalle":"DOSTLAR","aciklama":null}},{"type":"Feature","geometry":{"type":"Point","coordinates":[32.7120135006428,39.9693951914212]},"properties":{"oid":264,"global_id":"1CB222D2-AB34-F588-C336-B91038D1BCAF","tur":"HALK EKMEK","adi":"HALK EKMEK BAYİİ","adres":"Uğur Mumcu, Batıkent Blv. No:2, 06370 Yenimahalle/Ankara","x":null,"y":null,"aktif":true,"mahalle":"KENTKOOP","aciklama":null}},{"type":"Feature","geometry":{"type":"Point","coordinates":[32.8714520279657,39.9053639480066]},"properties":{"oid":265,"global_id":"6B23B5BA-A640-FB53-18CE-C65599FA18B3","tur":"HALK EKMEK","adi":"HALK EKMEK BAYİİ","adres":"Umut, Bağlar Cd. No:165, 06670 Çankaya/Ankara","x":null,"y":null,"aktif":true,"mahalle":"MUHSİN ERTUĞRUL","aciklama":null}},{"type":"Feature","geometry":{"type":"Point","coordinates":[32.7034902711785,39.8959588059032]},"properties":{"oid":266,"global_id":"C75B5EF9-CC9F-2DF8-6D48-BFA6DDA2377D","tur":"HALK EKMEK","adi":"HALK EKMEK BAYİİ","adres":"Ümit, 2432. Cd. No:54, 06810 Yenimahalle/Ankara","x":null,"y":null,"aktif":true,"mahalle":"ÜMİT","aciklama":null}},{"type":"Feature","geometry":{"type":"Point","coordinates":[32.7654912736978,40.0396357224241]},"properties":{"oid":267,"global_id":"EED5FDF3-C351-0231-90D1-60F43261D598","tur":"HALK EKMEK","adi":"HALK EKMEK BAYİİ","adres":"Yakacık, 3585. Cd No:127, 06105 Yenimahalle/Ankara","x":null,"y":null,"aktif":true,"mahalle":"YAKACIK","aciklama":null}},{"type":"Feature","geometry":{"type":"Point","coordinates":[32.8193763449268,39.9938915890421]},"properties":{"oid":268,"global_id":"FE63EAEF-4E6E-09EC-AA68-7B594296B0BC","tur":"HALK EKMEK","adi":"HALK EKMEK BAYİİ","adres":"Yayla, Yozgat Blv. 32/C, 06020 Keçiören/Ankara","x":null,"y":null,"aktif":true,"mahalle":"YAYLA","aciklama":null}},{"type":"Feature","geometry":{"type":"Point","coordinates":[32.9588970769009,39.9058365122844]},"properties":{"oid":269,"global_id":"AA6DDD54-DF90-F1AB-1C49-C30240226B39","tur":"HALK EKMEK","adi":"HALK EKMEK BAYİİ","adres":"Yeşilbayır, 06270 Mamak/Ankara","x":null,"y":null,"aktif":true,"mahalle":"YEŞİLBAYIR","aciklama":null}},{"type":"Feature","geometry":{"type":"Point","coordinates":[32.7861492532608,39.9699415662262]},"properties":{"oid":270,"global_id":"C8A8530D-6FCC-8A9A-3F0D-1DC10D9175F4","tur":"HALK EKMEK","adi":"HALK EKMEK BAYİİ","adres":"Yeşilevler, İvedik Cd. No:488, 06190 Yenimahalle/Ankara","x":null,"y":null,"aktif":true,"mahalle":"YEŞİLEVLER","aciklama":null}},{"type":"Feature","geometry":{"type":"Point","coordinates":[32.8842066137254,40.0011202754991]},"properties":{"oid":271,"global_id":"62A0A6D5-AB77-5D48-5F81-6802198BBF3B","tur":"HALK EKMEK","adi":"HALK EKMEK BAYİİ","adres":"Yeşiltepe, 969. Cd. No:135, 06300 Keçiören/Ankara","x":null,"y":null,"aktif":true,"mahalle":"AKTEPE","aciklama":null}},{"type":"Feature","geometry":{"type":"Point","coordinates":[32.865839388843,39.9523460109568]},"properties":{"oid":272,"global_id":"06FA990C-B145-1AA1-1246-3AF82E01E6B0","tur":"HALK EKMEK","adi":"HALK EKMEK BAYİİ","adres":"Yıldırım Beyazıt, Pamuk Sk., 06110 Dışkapı - Altındağ/Altındağ/Ankara","x":null,"y":null,"aktif":true,"mahalle":"ATIFBEY","aciklama":null}},{"type":"Feature","geometry":{"type":"Point","coordinates":[32.8640984680036,39.8773644073174]},"properties":{"oid":273,"global_id":"66798E98-B235-64A3-6C99-3A8AB61B54B6","tur":"HALK EKMEK","adi":"HALK EKMEK BAYİİ","adres":"Yıldızevler, 06550 Çankaya/Ankara","x":null,"y":null,"aktif":true,"mahalle":"YILDIZEVLER","aciklama":null}},{"type":"Feature","geometry":{"type":"Point","coordinates":[32.9060996227367,39.9708622239556]},"properties":{"oid":274,"global_id":"34581706-6C1E-BE15-EEB3-92CCB8547BFD","tur":"HALK EKMEK","adi":"HALK EKMEK BAYİİ","adres":"Yıldıztepe, Taşdelen Cd. No:107, 06140 Altındağ/Ankara","x":null,"y":null,"aktif":true,"mahalle":"GÜNEŞEVLER","aciklama":null}},{"type":"Feature","geometry":{"type":"Point","coordinates":[32.8302809395434,39.9246099060724]},"properties":{"oid":275,"global_id":"55387C93-9EF8-F007-D361-CC6831BDA945","tur":"HALK EKMEK","adi":"HALK EKMEK BAYİİ","adres":"Yukarı Bahçelievler, Bahçelievler Deneme Anadolu Lisesi 06490 Çankaya/Ankara","x":null,"y":null,"aktif":true,"mahalle":"YUKARI BAHÇELİEVLER","aciklama":null}},{"type":"Feature","geometry":{"type":"Point","coordinates":[32.5975803772803,39.9761704212969]},"properties":{"oid":276,"global_id":"3A8A8DC0-918F-5843-967A-722EFA4E8DFD","tur":"HALK EKMEK","adi":"HALK EKMEK BAYİİ","adres":"Yunus Emre, 06933 Sincan/Ankara","x":null,"y":null,"aktif":true,"mahalle":"YUNUS EMRE","aciklama":null}},{"type":"Feature","geometry":{"type":"Point","coordinates":[32.8664098796846,39.9195470909214]},"properties":{"oid":277,"global_id":"FF560F43-4083-3ACF-1E78-AEAB55785B27","tur":"HALK EKMEK","adi":"HALK EKMEK BAYİİ","adres":"Zafertepe Mah., İncesu Cd. No:52, 06590 Çankaya/Ankara","x":null,"y":null,"aktif":true,"mahalle":"İNCESU","aciklama":null}},{"type":"Feature","geometry":{"type":"Point","coordinates":[32.8733333952637,39.9177652978582]},"properties":{"oid":278,"global_id":"E1DE6FAE-A7E1-1E31-757D-D8369937D67B","tur":"HALK EKMEK","adi":"HALK EKMEK BAYİİ","adres":"Zafertepe, 06670 Çankaya/Ankara","x":null,"y":null,"aktif":true,"mahalle":"ARKA TOPRAKLIK","aciklama":null}},{"type":"Feature","geometry":{"type":"Point","coordinates":[32.8579571610803,39.9524975494028]},"properties":{"oid":279,"global_id":"30BECFAC-4B7A-5E33-8D0D-DA39FEB0084E","tur":"HALK EKMEK","adi":"HALK EKMEK BAYİİ","adres":"Ziraat, Şehit Ömer Halisdemir Caddesi No:4, 06110 Altındağ/Ankara","x":null,"y":null,"aktif":true,"mahalle":"ZÜBEYDE HANIM","aciklama":null}},{"type":"Feature","geometry":{"type":"Point","coordinates":[32.8474308220993,39.9539039219164]},"properties":{"oid":280,"global_id":"79D76FA4-406B-AD39-7B39-5EB2F6290EB2","tur":"HALK EKMEK","adi":"HALK EKMEK BAYİİ","adres":"Zübeyde Hanım, Aslanbey Cd., 06070 Altındağ/Ankara","x":null,"y":null,"aktif":true,"mahalle":"ZÜBEYDE HANIM","aciklama":null}},{"type":"Feature","geometry":{"type":"Point","coordinates":[31.6397447393,40.129868548739]},"properties":{"oid":53813,"global_id":"CD9721C7-619C-CF73-DC44-437F7CB0897C","tur":"PORTAŞ ASFALT ÜRETİM TESİSLERİ","adi":"BEYPAZARI PLENT TESİSİ","adres":"Davutoğlan, 06920 Nallıhan/Ankara","x":null,"y":null,"aktif":true,"mahalle":"DAVUTOĞLAN","aciklama":null}},{"type":"Feature","geometry":{"type":"Point","coordinates":[32.884097727108,39.963083336669]},"properties":{"oid":8508,"global_id":"43F8E429-C6BB-524F-CCDB-DB88D2F1CEB3","tur":"OTOPARKLAR","adi":"ALTINPARK","adres":"Altınpark Rekreasyon Alanı içerisinde bulunan27 Aralık kapısı girişi","x":null,"y":null,"aktif":true,"mahalle":"AYDINLIKEVLER","aciklama":null}},{"type":"Feature","geometry":{"type":"Point","coordinates":[32.884583458981,39.965164845782]},"properties":{"oid":8507,"global_id":"9F7C683F-3084-FE92-B8CD-9C70343369C4","tur":"OTOPARKLAR","adi":"ALTINPARK","adres":"Altınpark Rekreasyon Alanı içerisinde bulunan 13 Ekim kapısı girişi","x":null,"y":null,"aktif":true,"mahalle":"AYDINLIKEVLER","aciklama":null}},{"type":"Feature","geometry":{"type":"Point","coordinates":[32.882734237008,39.969009561147]},"properties":{"oid":8506,"global_id":"84A7AD6A-E2B8-D753-0D0D-A92485634747","tur":"OTOPARKLAR","adi":"ALTINPARK","adres":"Altınpark Rekreasyon Alanı içerisinde bulunan 19 Mayıs kapısı","x":null,"y":null,"aktif":true,"mahalle":"GÜNEŞEVLER","aciklama":null}},{"type":"Feature","geometry":{"type":"Point","coordinates":[32.881525310481,39.969507386468]},"properties":{"oid":8505,"global_id":"1816146F-7C98-52C9-D927-A2C0A336F7AA","tur":"OTOPARKLAR","adi":"ALTINPARK","adres":"Altınpark Rekreasyon Alanı içerisinde bulunan 23 Nisan kapısı","x":null,"y":null,"aktif":true,"mahalle":"AYDINLIKEVLER","aciklama":null}},{"type":"Feature","geometry":{"type":"Point","coordinates":[32.875491145464,39.964904414122]},"properties":{"oid":8504,"global_id":"8924CD6C-3280-0829-83E9-387D7972194D","tur":"OTOPARKLAR","adi":"ALTINPARK","adres":"Altınpark Rekreasyon Alanı içerisinde bulunan Aydınlıkevler kapısı","x":null,"y":null,"aktif":true,"mahalle":"AYDINLIKEVLER","aciklama":null}},{"type":"Feature","geometry":{"type":"Point","coordinates":[32.875334040191,39.967683388835]},"properties":{"oid":8503,"global_id":"4C19719B-0817-BEBF-131B-7B7FFFDB6731","tur":"OTOPARKLAR","adi":"ALTINPARK","adres":"Altınpark Rekreasyon Alanı içerisinde bulunan, Altınpark ana kapısı","x":null,"y":null,"aktif":true,"mahalle":"AYDINLIKEVLER","aciklama":null}},{"type":"Feature","geometry":{"type":"Point","coordinates":[32.9183621018778,39.9020746502461]},"properties":{"oid":173,"global_id":"085217F7-6FAA-79EC-9A30-B1520F0146E3","tur":"HALK EKMEK","adi":"HALK EKMEK BAYİİ","adres":"Ege, 06270 Mamak/Ankara","x":null,"y":null,"aktif":true,"mahalle":"EGE","aciklama":null}},{"type":"Feature","geometry":{"type":"Point","coordinates":[32.829715169213,39.9694506508]},"properties":{"oid":8707,"global_id":"85ED080D-4056-ED79-8406-D5EC672223E5","tur":"BİTKİ EVİ","adi":"ZEYNEPÇİK BİTKİ EVİ","adres":"VARLIK MAH.","x":null,"y":null,"aktif":true,"mahalle":"AŞAĞI EĞLENCE","aciklama":null}},{"type":"Feature","geometry":{"type":"Point","coordinates":[32.8398520335057,39.8749237146416]},"properties":{"oid":237,"global_id":"1A0D1E50-4DA6-DD8B-3E79-908D9392E1A1","tur":"HALK EKMEK","adi":"HALK EKMEK BAYİİ","adres":"Naci Çakır, 752. Cd. No:25, 06450 Çankaya/Ankara","x":null,"y":null,"aktif":true,"mahalle":"ETLİK","aciklama":null}},{"type":"Feature","geometry":{"type":"Point","coordinates":[32.9015943506961,39.9101997807298]},"properties":{"oid":234,"global_id":"F0654C83-4CDE-CCBD-F7D0-DEAA01595BE2","tur":"HALK EKMEK","adi":"HALK EKMEK BAYİİ","adres":"Mutlu, 700. Sk. No:2, 06630 Mamak/Ankara","x":null,"y":null,"aktif":true,"mahalle":"MUTLU","aciklama":null}},{"type":"Feature","geometry":{"type":"Point","coordinates":[32.849181498302,39.923791408637]},"properties":{"oid":8487,"global_id":"017D412E-640E-433A-9589-523574DDC988","tur":"OTOPARKLAR","adi":"DEMİRTEPE AÇIK OTOPARKI","adres":"Korkut Reis Mah. Necatibey Cad. - Dışkapı No: 60 / İç Kapı No: A","x":null,"y":null,"aktif":true,"mahalle":"KORKUTREİS","aciklama":null}},{"type":"Feature","geometry":{"type":"Point","coordinates":[32.723630399857,39.974794085908]},"properties":{"oid":10002,"global_id":"1E68243B-C393-FF80-4299-8A69E4FEE797","tur":"SEĞMEN SU SATIŞ BAYİLERİ","adi":"ARSLAN TİCARET","adres":"İLKYERLEŞİM MAHALLESİ","x":null,"y":null,"aktif":true,"mahalle":"İLKYERLEŞİM","aciklama":null}},{"type":"Feature","geometry":{"type":"Point","coordinates":[32.891371400525,39.929989836538]},"properties":{"oid":10004,"global_id":"7790A8CE-EDB1-9FE3-AD8C-F4F64F5D85BF","tur":"SEĞMEN SU SATIŞ BAYİLERİ","adi":"AYLİN SU","adres":"SAİME KADIN MAHALLESİ","x":null,"y":null,"aktif":true,"mahalle":"SAİMEKADIN","aciklama":null}},{"type":"Feature","geometry":{"type":"Point","coordinates":[32.858591603467,39.982362814578]},"properties":{"oid":10011,"global_id":"98C08A1B-8383-AB01-CED0-CF010EEBCAF8","tur":"SEĞMEN SU SATIŞ BAYİLERİ","adi":"EKSPRES TİCARET","adres":"ÇİÇEKLİ MAHALLESİ","x":null,"y":null,"aktif":true,"mahalle":"ÇİÇEKLİ","aciklama":null}},{"type":"Feature","geometry":{"type":"Point","coordinates":[32.764455253148,39.958404519422]},"properties":{"oid":10015,"global_id":"2B18D424-543A-3BF9-9A79-E6282BA455DB","tur":"SEĞMEN SU SATIŞ BAYİLERİ","adi":"GÜNAY YENİLENEBİLİR ENERJİ","adres":"MACUN MAHALLESİ","x":null,"y":null,"aktif":true,"mahalle":"MACUN","aciklama":null}},{"type":"Feature","geometry":{"type":"Point","coordinates":[32.818091516016,39.919388521636]},"properties":{"oid":10020,"global_id":"095BC988-B1EE-E045-70F9-26B10F6FA010","tur":"SEĞMEN SU SATIŞ BAYİLERİ","adi":"ONUR TİCARET","adres":"EMEK MAHALLESİ","x":null,"y":null,"aktif":true,"mahalle":"EMEK","aciklama":null}},{"type":"Feature","geometry":{"type":"Point","coordinates":[32.569298273884,39.814281975074]},"properties":{"oid":10032,"global_id":"2C96F20A-7528-5C4E-0B55-D58202F65ABA","tur":"SEĞMEN SU SATIŞ BAYİLERİ","adi":"GÜL ÇERİ TİCARET","adres":"YUKARI YURTÇU MAHALLESİ","x":null,"y":null,"aktif":true,"mahalle":"TURKUAZ","aciklama":null}},{"type":"Feature","geometry":{"type":"Point","coordinates":[32.902977513191,39.532516421624]},"properties":{"oid":9998,"global_id":"EAE197CD-E8CD-3561-9C3B-FF9FD938B237","tur":"SEĞMEN SU FABRİKALARI","adi":"GÖLBAŞI FABRİKA","adres":"BAĞİÇİ MAH.","x":null,"y":null,"aktif":true,"mahalle":"BAĞİÇİ","aciklama":null}},{"type":"Feature","geometry":{"type":"Point","coordinates":[32.846713683952,39.900919727166]},"properties":{"oid":10042,"global_id":"65298732-8BE3-38E6-756B-CDB8CC761A41","tur":"SEĞMEN SU SATIŞ BAYİLERİ","adi":"ELANUR","adres":"GÜLERYÜZ MAHALLESİ","x":null,"y":null,"aktif":true,"mahalle":"AYRANCI","aciklama":null}},{"type":"Feature","geometry":{"type":"Point","coordinates":[33.227355184732,39.921322141823]},"properties":{"oid":10047,"global_id":"2F2FEC1E-0DC7-7C98-B4AB-ECF1F8F9D538","tur":"SEĞMEN SU SATIŞ BAYİLERİ","adi":"HUZUR SU MARKET","adres":"KEMALPAŞA MAHALLESİ","x":null,"y":null,"aktif":true,"mahalle":"KEMALPAŞA","aciklama":null}},{"type":"Feature","geometry":{"type":"Point","coordinates":[32.786620240555,39.972994297776]},"properties":{"oid":10051,"global_id":"CDC9B72F-2DB2-797D-5C50-5079EC965414","tur":"SEĞMEN SU SATIŞ BAYİLERİ","adi":"ÇAĞ SU TİCARET","adres":"DEMETEVLER MAHALLESİ","x":null,"y":null,"aktif":true,"mahalle":"YEŞİLEVLER","aciklama":null}},{"type":"Feature","geometry":{"type":"Point","coordinates":[32.811569455897,39.923682278226]},"properties":{"oid":10054,"global_id":"3AC30D3A-76C8-1830-D2C2-EC15D65FA2B4","tur":"SEĞMEN SU SATIŞ BAYİLERİ","adi":"SERDAR ŞAHİN","adres":"BEŞTEPE MAHALLESİ","x":null,"y":null,"aktif":true,"mahalle":"BEŞTEPE","aciklama":null}},{"type":"Feature","geometry":{"type":"Point","coordinates":[32.800994828906,39.801621737267]},"properties":{"oid":10058,"global_id":"46A65EE3-B444-F376-D933-6DF8BC2D80CE","tur":"SEĞMEN SU SATIŞ BAYİLERİ","adi":"ÜNAL TİCARET","adres":"KARŞIYAKA MAHALLESİ","x":null,"y":null,"aktif":true,"mahalle":"KARŞIYAKA","aciklama":null}},{"type":"Feature","geometry":{"type":"Point","coordinates":[32.867687644187,39.993768970319]},"properties":{"oid":10060,"global_id":"1B06A92B-16FD-F253-E962-FA166FC325F1","tur":"SEĞMEN SU SATIŞ BAYİLERİ","adi":"ALİ İHSAN DOĞAN","adres":"ŞENLİK MAHALLESİ","x":null,"y":null,"aktif":true,"mahalle":"ŞENLİK","aciklama":null}},{"type":"Feature","geometry":{"type":"Point","coordinates":[32.80849988609,39.798965080813]},"properties":{"oid":10085,"global_id":"1F57C7E2-43B6-8093-AF19-E6072B875E83","tur":"SEĞMEN SU SATIŞ BAYİLERİ","adi":"SU GROSS BÜLENT ÜNAL","adres":"ŞAFAK MAHALLESİ","x":null,"y":null,"aktif":true,"mahalle":"ŞAFAK","aciklama":null}},{"type":"Feature","geometry":{"type":"Point","coordinates":[32.843513869889,39.931018258677]},"properties":{"oid":10065,"global_id":"474AF8F2-DA7F-C66D-BB40-F247357D14A4","tur":"SEĞMEN SU SATIŞ BAYİLERİ","adi":"SU GROSS BÜLENT ÜNAL","adres":"ANITTEPE MAHALLESİ","x":null,"y":null,"aktif":true,"mahalle":"ANITTEPE","aciklama":null}},{"type":"Feature","geometry":{"type":"Point","coordinates":[32.820416886117,39.876805296298]},"properties":{"oid":10078,"global_id":"DF9DBBA9-45A4-76BD-DEEB-E751F66B55A5","tur":"SEĞMEN SU SATIŞ BAYİLERİ","adi":"DAŞDAN GIDA","adres":"HUZUR MAHALLESİ","x":null,"y":null,"aktif":true,"mahalle":"HUZUR","aciklama":null}},{"type":"Feature","geometry":{"type":"Point","coordinates":[32.868056213567,39.908389213589]},"properties":{"oid":10066,"global_id":"6C586C4C-4E54-6EF7-892A-32FEC95382EB","tur":"SEĞMEN SU SATIŞ BAYİLERİ","adi":"DAŞDAN GIDA","adres":"KÜÇÜKESAT MAHALLESİ","x":null,"y":null,"aktif":true,"mahalle":"KÜÇÜKESAT","aciklama":null}},{"type":"Feature","geometry":{"type":"Point","coordinates":[32.62893451683,39.951245550787]},"properties":{"oid":10081,"global_id":"4F7FAE90-26F1-280B-CAE0-24473A3C2AC2","tur":"SEĞMEN SU SATIŞ BAYİLERİ","adi":"VATAN GIDA","adres":"ELVAN MAHALLESİ","x":null,"y":null,"aktif":true,"mahalle":"ELVAN","aciklama":null}},{"type":"Feature","geometry":{"type":"Point","coordinates":[32.879777743185,40.004282437497]},"properties":{"oid":10084,"global_id":"FB5FE086-84C8-FFF2-C510-9333756D4A78","tur":"SEĞMEN SU SATIŞ BAYİLERİ","adi":"KALKAN TİCARET","adres":"23 NİSAN MAHALLESİ","x":null,"y":null,"aktif":true,"mahalle":"23 NİSAN","aciklama":null}},{"type":"Feature","geometry":{"type":"Point","coordinates":[32.837508802901,39.933232848865]},"properties":{"oid":8489,"global_id":"94655FA5-735D-CAE0-8B53-3B51820D9BE5","tur":"OTOPARKLAR","adi":"TANDOĞAN AÇIK OTOPARKI","adres":"Mebusevleri Mah. Anıt Cad. Dış kapı no: 8 İç Kapı no: 2","x":null,"y":null,"aktif":true,"mahalle":"MEBUSEVLERİ","aciklama":null}},{"type":"Feature","geometry":{"type":"Point","coordinates":[32.854659106411,39.950722]},"properties":{"oid":53617,"global_id":"C271AB18-0B5F-6AD8-CF85-868553FE4567","tur":"OTOPARKLAR","adi":"DIŞKAPI AÇIK OTOPARKI (ARAÇ KAPASİTESİ: 147)","adres":"Hacı bayram Mah. Kazım Karabekir Cad. Dışkapı No: 138 / İç Kapı No: ","x":null,"y":null,"aktif":true,"mahalle":"HACI BAYRAM","aciklama":null}},{"type":"Feature","geometry":{"type":"Point","coordinates":[32.857126281126,39.940152310519]},"properties":{"oid":53618,"global_id":"2463B88B-1ED5-F00F-AD36-666E1286D76D","tur":"OTOPARKLAR","adi":"ULUS AÇIK OTOPARKI (ARAÇ KAPASİTESİ: 150)","adres":"Teğmen Kalmaz Cd. (Yıkılan Modern Çarşı Alanı) - Dışkapı No: 27 / İç Kapı No: A","x":null,"y":null,"aktif":true,"mahalle":"HACI BAYRAM","aciklama":null}},{"type":"Feature","geometry":{"type":"Point","coordinates":[32.859916846042,39.925838098139]},"properties":{"oid":53631,"global_id":"136AA24B-42F0-570A-B1A4-9C7C62F38150","tur":"OTOPARKLAR","adi":"SIHHİYE ÇOK KATLI OTOPARKI (ARAÇ KAPASİTESİ: 800)","adres":"Sıhhiye Çok Katlı Otoparkı Sağlık Mah.","x":null,"y":null,"aktif":true,"mahalle":"SAĞLIK","aciklama":null}},{"type":"Feature","geometry":{"type":"Point","coordinates":[32.845181306288,39.937165391853]},"properties":{"oid":53621,"global_id":"2FD95F44-37E1-28DF-C659-DF6A1D6A5C4E","tur":"OTOPARKLAR","adi":"GENÇLİK PARKI LUNAPARK KAPISI – OPERA BİNASI – GAR GİRİŞİ (ARAÇ KAPASİTESİ: 405)","adres":"Lunapark kapısı girişi, Opera Binası arkası ve Gar girişinde bulunan kapalı otopark","x":null,"y":null,"aktif":true,"mahalle":"HACI BAYRAM","aciklama":null}},{"type":"Feature","geometry":{"type":"Point","coordinates":[32.858616745577,39.945662260818]},"properties":{"oid":53623,"global_id":"BE7F9281-BD29-58FD-AA03-61A0E05DD11C","tur":"OTOPARKLAR","adi":"HACI BAYRAM CAMİİ ÇOK KATLI (ARAÇ KAPASİTESİ: 521)","adres":"Hacı Bayram Camii alt tarafında bulunan çok katlı otopark","x":null,"y":null,"aktif":true,"mahalle":"HACI BAYRAM","aciklama":null}},{"type":"Feature","geometry":{"type":"Point","coordinates":[32.84304720316,39.883006691916]},"properties":{"oid":53630,"global_id":"FD84F8D7-F4CF-DB9B-89F0-AC3F1842030F","tur":"OTOPARKLAR","adi":"DİKMEN VADİSİ AÇIK OTOPARKI (ARAÇ KAPASİTESİ: 136)","adres":"İlk adım Mah. Güzeltepe 747 Ankara Çankaya Dışkapı No: 2 / İç Kapı No: 1","x":null,"y":null,"aktif":true,"mahalle":"İLKADIM","aciklama":null}},{"type":"Feature","geometry":{"type":"Point","coordinates":[32.844074552114,39.933681452313]},"properties":{"oid":53635,"global_id":"CAE42D6A-DD41-CA0E-A5A7-BB4A629CEEAF","tur":"OTOPARKLAR","adi":"AKSU KÖPRÜ ALTI (ARAÇ KAPASİTESİ: 110)","adres":"Eti mah. Celal Bayar Bulvarı Aksu Köprü Altı Otoparkı No:41/A ","x":null,"y":null,"aktif":true,"mahalle":"ETİ","aciklama":null}},{"type":"Feature","geometry":{"type":"Point","coordinates":[32.828359299836,39.924938943258]},"properties":{"oid":53636,"global_id":"12A888FC-58E1-2F99-A092-E40796959911","tur":"OTOPARKLAR","adi":"BAHÇELİEVLER SEMT HALİ (ARAÇ KAPASİTESİ: 70)","adres":"Bahçelievler mah. Semt Hali 2. katında bulunan otopark","x":null,"y":null,"aktif":true,"mahalle":"YUKARI BAHÇELİEVLER","aciklama":null}},{"type":"Feature","geometry":{"type":"Point","coordinates":[32.860033347364,39.916179349581]},"properties":{"oid":53637,"global_id":"3FDE9EB7-EEB4-A131-3A6D-185930F6B5FB","tur":"OTOPARKLAR","adi":"KOCATEPE ÇOK KATLI (ARAÇ KAPASİTESİ: 1000)","adres":"Kocatepe Çok Katlı Otoparkı","x":null,"y":null,"aktif":true,"mahalle":"KÜLTÜR","aciklama":null}},{"type":"Feature","geometry":{"type":"Point","coordinates":[32.647622116514,39.988657015936]},"properties":{"oid":53638,"global_id":"AF29EF73-3514-35E1-0D42-B95C06A2546A","tur":"OTOPARKLAR","adi":"GÖKSU PARKI REKREASYON ALANI (ARAÇ KAPASİTESİ: 1546)","adres":"Göksu Parkı alanı içerisinde yer alan 1-12 Nolu otoparklar","x":null,"y":null,"aktif":true,"mahalle":"GÖKSU","aciklama":null}},{"type":"Feature","geometry":{"type":"Point","coordinates":[32.629936732149,40.468686959712]},"properties":{"oid":53640,"global_id":"AF59A5E6-3E2B-DA91-D63B-9E234AA95EC1","tur":"OTOPARKLAR","adi":"KIZILCAHAMAM SOĞUK SU MİLLİ PARKI OTOPARKI (ARAÇ KAPASİTESİ: -)","adres":"Kızılcahamam Soğuk Su Milli Parkı İçerisi","x":null,"y":null,"aktif":true,"mahalle":"YENİCE","aciklama":null}},{"type":"Feature","geometry":{"type":"Point","coordinates":[32.82663593532,39.953089187694]},"properties":{"oid":53641,"global_id":"49985A28-111A-05DE-B2D2-94B7226A932E","tur":"OTOPARKLAR","adi":"TOPTANCI HAL İÇİ (ARAÇ KAPASİTESİ: 1060)","adres":"Ankara Hipodrom Caddesi Toptancı Hali","x":null,"y":null,"aktif":true,"mahalle":"GAZİ","aciklama":null}},{"type":"Feature","geometry":{"type":"Point","coordinates":[32.993258323539,39.916817137147]},"properties":{"oid":53642,"global_id":"AE19C097-5D9D-E107-60E5-4BB28D9FA223","tur":"OTOPARKLAR","adi":"MAVİ GÖL REKREASYON ALANI (ARAÇ KAPASİTESİ: 1680)","adres":"Mavi Göl Rekreasyon Alanı içerisi","x":null,"y":null,"aktif":true,"mahalle":"YENİ BAYINDIR","aciklama":null}},{"type":"Feature","geometry":{"type":"Point","coordinates":[32.855258643586,39.925127343273]},"properties":{"oid":53747,"global_id":"A550746D-6791-2520-B2C8-B57F3C899C75","tur":"BELKO VİTAMİN DEPOLARI","adi":"Zafer Satış Büfesi","adres":"Cumhuriyet Mahallesi Atatürk Bulvarı No: 65/1 Çankaya","x":null,"y":null,"aktif":true,"mahalle":"CUMHURİYET","aciklama":null}},{"type":"Feature","geometry":{"type":"Point","coordinates":[32.854548874255,39.920463959799]},"properties":{"oid":53749,"global_id":"36328CC4-2A14-39E7-AEF3-11326C6DE24B","tur":"BELKO VİTAMİN DEPOLARI","adi":"Gima Satış Büfesi","adres":"Meşrutiyet Mahallesi Ziya Gökalp Caddesi No: 2/2 Çankaya","x":null,"y":null,"aktif":true,"mahalle":"MEŞRUTİYET","aciklama":null}},{"type":"Feature","geometry":{"type":"Point","coordinates":[32.85476163976,39.926108188167]},"properties":{"oid":53752,"global_id":"C56799DB-4682-CAC4-D48D-1A8C01943F63","tur":"BELKO VİTAMİN DEPOLARI","adi":"Mavi Masa Satış Büfesi","adres":"Korkut Reis Mahallesi Atatürk Bulvarı No: 44/33 Çankaya","x":null,"y":null,"aktif":true,"mahalle":"KIZILAY","aciklama":null}},{"type":"Feature","geometry":{"type":"Point","coordinates":[32.856930781649,39.941441545231]},"properties":{"oid":53754,"global_id":"714D2335-5BC5-B839-0C63-823C693C730A","tur":"BELKO VİTAMİN DEPOLARI","adi":"Ulus Satış Büfesi","adres":"Anafartalar Mahallesi Anafartalar Caddesi No: 6/2 Altındağ","x":null,"y":null,"aktif":true,"mahalle":"HACI BAYRAM","aciklama":null}},{"type":"Feature","geometry":{"type":"Point","coordinates":[32.878409166968,39.933109003775]},"properties":{"oid":53760,"global_id":"90C2FCC7-543E-6CE6-319C-77412672CFBD","tur":"BELKO VİTAMİN DEPOLARI","adi":"Dikimevi Satış Büfesi","adres":"Cebeci Mh. Cemal Gürsel Cd. No:121/2 Çankaya ","x":null,"y":null,"aktif":true,"mahalle":"CEBECİ","aciklama":null}},{"type":"Feature","geometry":{"type":"Point","coordinates":[32.812837320322,39.918126023028]},"properties":{"oid":53761,"global_id":"5BBFD8C0-505D-53D2-25DE-825D584B848E","tur":"BELKO VİTAMİN DEPOLARI","adi":"Aşti Satış Büfesi","adres":"Aşti Giden Yolcu Katı Danışma karşısı","x":null,"y":null,"aktif":true,"mahalle":"BEŞTEPE","aciklama":null}},{"type":"Feature","geometry":{"type":"Point","coordinates":[32.820013854046,39.87449615495]},"properties":{"oid":10001,"global_id":"0209FD0D-7CB4-082D-BB2C-61724A862F2F","tur":"SEĞMEN SU SATIŞ BAYİLERİ","adi":"AĞA TİC.","adres":"HUZUR MAHALLESİ","x":null,"y":null,"aktif":true,"mahalle":"HUZUR","aciklama":null}},{"type":"Feature","geometry":{"type":"Point","coordinates":[32.783876424047,39.772030085838]},"properties":{"oid":8486,"global_id":"32A5B6E1-D1B9-463E-EEE1-3C2B8E27D207","tur":"OTOPARKLAR","adi":"MOGAN REKREASYON ALANI","adres":"Karşıyaka Mogan Parkı (Kümeevler) - Dışkapı No: 1 / İç Kapı No: ","x":null,"y":null,"aktif":true,"mahalle":"KARŞIYAKA","aciklama":null}},{"type":"Feature","geometry":{"type":"Point","coordinates":[32.845103405773,40.046446662508]},"properties":{"oid":8488,"global_id":"CD633E24-AA4B-79E3-D4C9-C3F0B4299711","tur":"OTOPARKLAR","adi":"KALE AÇIK OTOPARKI","adres":"Kale Mah. Sevinç Sok. - Dış Kapı No: 1 / İç Kapı No: 1","x":null,"y":null,"aktif":true,"mahalle":"KARAKAYA","aciklama":null}},{"type":"Feature","geometry":{"type":"Point","coordinates":[32.646838359887,39.988348748152]},"properties":{"oid":8500,"global_id":"56938785-AE4D-46EC-8CE7-E477FA0B9844","tur":"OTOPARKLAR","adi":"GÖKSU PARKI REKREASYON ALANI","adres":"Göksu Parkı alanı içerisinde yer alan 1-12 Nolu otoparklar","x":null,"y":null,"aktif":true,"mahalle":"GÖKSU","aciklama":null}},{"type":"Feature","geometry":{"type":"Point","coordinates":[32.858298950926,39.945919555599]},"properties":{"oid":8502,"global_id":"370CA617-63B5-B013-D98A-4C9D94E187AF","tur":"OTOPARKLAR","adi":"HACI BAYRAM CAMİİ ÇOK KATLI","adres":"Hacı Bayram Camii alt tarafında bulunan çok katlı otopark","x":null,"y":null,"aktif":true,"mahalle":"HACI BAYRAM","aciklama":null}},{"type":"Feature","geometry":{"type":"Point","coordinates":[32.823373469171,39.951708792406]},"properties":{"oid":8511,"global_id":"AC10184D-E922-C44D-11D7-131D0E1CD758","tur":"OTOPARKLAR","adi":"TOPTANCI HAL İÇİ","adres":"Ankara Hipodrom Caddesi Toptancı Hali","x":null,"y":null,"aktif":true,"mahalle":"GAZİ","aciklama":null}},{"type":"Feature","geometry":{"type":"Point","coordinates":[32.805499690261,39.922716214578]},"properties":{"oid":8709,"global_id":"BDA84191-4EFD-BE69-8A61-C8A93DAA17C4","tur":"BİTKİ EVİ","adi":"30 AĞUSTOS ZAFER PARKI BİTKİ EVİ","adres":"BEŞTEPE MAH.","x":null,"y":null,"aktif":true,"mahalle":"BEŞTEPE","aciklama":null}},{"type":"Feature","geometry":{"type":"Point","coordinates":[32.612989482884,39.973723471707]},"properties":{"oid":10003,"global_id":"2C35017F-3F7A-2EAC-1A0F-ED14D1F4FBD6","tur":"SEĞMEN SU SATIŞ BAYİLERİ","adi":"ATASEVEN SU BAYİİ ","adres":"ERYAMAN MAHALLESİ","x":null,"y":null,"aktif":true,"mahalle":"ERYAMAN","aciklama":null}},{"type":"Feature","geometry":{"type":"Point","coordinates":[32.616114906922,39.972818955017]},"properties":{"oid":10009,"global_id":"2B339AE8-5CF9-013D-AED3-1BA9C4C3E3DF","tur":"SEĞMEN SU SATIŞ BAYİLERİ","adi":"DAŞÇI TİCARET","adres":"ERYAMAN MAHALLESİ","x":null,"y":null,"aktif":true,"mahalle":"ERYAMAN","aciklama":null}},{"type":"Feature","geometry":{"type":"Point","coordinates":[32.865257582885,40.010269565188]},"properties":{"oid":10023,"global_id":"772402E0-D24D-8C4B-81B0-2E24B71E161A","tur":"SEĞMEN SU SATIŞ BAYİLERİ","adi":"SİO KESKİN","adres":"UYANIŞ MAHALLESİ","x":null,"y":null,"aktif":true,"mahalle":"UYANIŞ","aciklama":null}},{"type":"Feature","geometry":{"type":"Point","coordinates":[32.831716642405,39.975893752677]},"properties":{"oid":10024,"global_id":"6267F3FF-C77D-B28F-2BD4-CCCE8AF03F51","tur":"SEĞMEN SU SATIŞ BAYİLERİ","adi":"SU MARKET - İBRAHİM BOSTAN","adres":"ETLİK MAHALLESİ","x":null,"y":null,"aktif":true,"mahalle":"ETLİK","aciklama":null}},{"type":"Feature","geometry":{"type":"Point","coordinates":[32.97702462706,39.906425860105]},"properties":{"oid":10025,"global_id":"4369DE6E-8398-D64F-3148-4CAEEC74C5B6","tur":"SEĞMEN SU SATIŞ BAYİLERİ","adi":"ŞEN KIRTASİYE MİNİ MARKET","adres":"KÜÇÜK AYAŞ MAHALLESİ","x":null,"y":null,"aktif":true,"mahalle":"YENİ BAYINDIR","aciklama":null}},{"type":"Feature","geometry":{"type":"Point","coordinates":[32.884390498225,39.939556004467]},"properties":{"oid":10030,"global_id":"2355A4BC-C684-3CCB-6896-C45A554EC35D","tur":"SEĞMEN SU SATIŞ BAYİLERİ","adi":"BİRGÜL CİBİK","adres":"ŞAFAKTEPE MAHALLESİ","x":null,"y":null,"aktif":true,"mahalle":"ŞAFAKTEPE","aciklama":null}},{"type":"Feature","geometry":{"type":"Point","coordinates":[32.521009850385,39.157456434517]},"properties":{"oid":9999,"global_id":"65058518-F012-A93A-51EE-7386C8A15513","tur":"SEĞMEN SU FABRİKALARI","adi":"HAYMANA FABRİKA","adres":"BÜYÜKYAĞCI MAH.","x":null,"y":null,"aktif":true,"mahalle":"BÜYÜKYAĞCI","aciklama":null}},{"type":"Feature","geometry":{"type":"Point","coordinates":[32.819039371239,39.920108460566]},"properties":{"oid":10037,"global_id":"05CF631C-7A24-559E-7FF4-5350C94C72B5","tur":"SEĞMEN SU SATIŞ BAYİLERİ","adi":"TOPALOĞULLARI İNŞ. TURİZM GIDA","adres":"EMEK MAHALLESİ","x":null,"y":null,"aktif":true,"mahalle":"EMEK","aciklama":null}},{"type":"Feature","geometry":{"type":"Point","coordinates":[32.821441104884,39.924264926719]},"properties":{"oid":10040,"global_id":"C1F72D65-CC2B-70C5-5729-7DADA615AA70","tur":"SEĞMEN SU SATIŞ BAYİLERİ","adi":"ALİ İPEKOĞLU","adres":"EMEK MAHALLESİ","x":null,"y":null,"aktif":true,"mahalle":"EMEK","aciklama":null}},{"type":"Feature","geometry":{"type":"Point","coordinates":[32.870741621105,39.90600824521]},"properties":{"oid":10046,"global_id":"F0281BE2-EE9E-8B1C-69CD-732F6A3A2B5B","tur":"SEĞMEN SU SATIŞ BAYİLERİ","adi":"KAYA TİC.TAYFUN KAYA","adres":"SEYRANBAĞLARI MAHALLESİ","x":null,"y":null,"aktif":true,"mahalle":"MUHSİN ERTUĞRUL","aciklama":null}},{"type":"Feature","geometry":{"type":"Point","coordinates":[32.87455526939,39.96043055586]},"properties":{"oid":10053,"global_id":"075CBE8D-C902-AFE3-A47D-116DF81E6A5F","tur":"SEĞMEN SU SATIŞ BAYİLERİ","adi":"NEHİR SU","adres":"AYDIKLIKEVLER MAHALLESİ","x":null,"y":null,"aktif":true,"mahalle":"AYDINLIKEVLER","aciklama":null}},{"type":"Feature","geometry":{"type":"Point","coordinates":[32.873880884381,39.881604659106]},"properties":{"oid":10055,"global_id":"5DEACC24-2BFE-CC64-337D-38F2DDA92F8C","tur":"SEĞMEN SU SATIŞ BAYİLERİ","adi":"KENAN KAYNARTAŞ","adres":"BİRLİK MAHALLESİ","x":null,"y":null,"aktif":true,"mahalle":"BİRLİK","aciklama":null}},{"type":"Feature","geometry":{"type":"Point","coordinates":[32.87040874906,39.875914594648]},"properties":{"oid":10056,"global_id":"A99B0C2C-A047-8CFA-56A9-995F156F4884","tur":"SEĞMEN SU SATIŞ BAYİLERİ","adi":"KENAN KAYNARTAŞ(ÖMER)","adres":"BİRLİK MAHALLESİ","x":null,"y":null,"aktif":true,"mahalle":"BİRLİK","aciklama":null}},{"type":"Feature","geometry":{"type":"Point","coordinates":[32.87913936273,39.894398046169]},"properties":{"oid":10061,"global_id":"09C46A4E-B08A-F8FB-1D55-552BB32B14D4","tur":"SEĞMEN SU SATIŞ BAYİLERİ","adi":"ÇAĞHAN TİCARET","adres":"GAZİ OSMAN PAŞA MAHALLESİ","x":null,"y":null,"aktif":true,"mahalle":"BÜYÜKESAT","aciklama":null}},{"type":"Feature","geometry":{"type":"Point","coordinates":[32.909855539563,39.917453001232]},"properties":{"oid":10079,"global_id":"088302AE-8056-8B5A-82E0-F6367193C1E6","tur":"SEĞMEN SU SATIŞ BAYİLERİ","adi":"AYDOĞAN MARKET","adres":"GENERAL ZEKİ DOĞAN MAHALLESİ","x":null,"y":null,"aktif":true,"mahalle":"GENERAL ZEKİ DOĞAN","aciklama":null}},{"type":"Feature","geometry":{"type":"Point","coordinates":[32.655965780748,39.942089776041]},"properties":{"oid":10082,"global_id":"747B5AF5-4D8F-4FFD-6C76-050BFE79D481","tur":"SEĞMEN SU SATIŞ BAYİLERİ","adi":"FURKAN GÜLER","adres":"30AĞUSTOS MAHALLESİ","x":null,"y":null,"aktif":true,"mahalle":"30 AĞUSTOS","aciklama":null}},{"type":"Feature","geometry":{"type":"Point","coordinates":[32.833648140121,39.971268678149]},"properties":{"oid":10087,"global_id":"0DF4CF1F-0CB9-AB43-6D37-8EC8609F586F","tur":"SEĞMEN SU SATIŞ BAYİLERİ","adi":"METİ TİCARET","adres":"AŞAĞIEĞLENCE MAHALLESİ","x":null,"y":null,"aktif":true,"mahalle":"AŞAĞI EĞLENCE","aciklama":null}},{"type":"Feature","geometry":{"type":"Point","coordinates":[32.837429858242,39.992546104754]},"properties":{"oid":10088,"global_id":"B0348052-BC67-8034-A8EC-057DEDD4202A","tur":"SEĞMEN SU SATIŞ BAYİLERİ","adi":"KARDEŞLER SU","adres":"ESERTEPE MAHALLESİ","x":null,"y":null,"aktif":true,"mahalle":"ESERTEPE","aciklama":null}},{"type":"Feature","geometry":{"type":"Point","coordinates":[32.850563663754,39.942600106865]},"properties":{"oid":53620,"global_id":"9D682EEB-6A4B-332D-E494-3BB3262ABD08","tur":"OTOPARKLAR","adi":"RÜZGARLI YOL BOYU OTOPARK (ARAÇ KAPASİTESİ: 209)","adres":"Hacı bayram Mah. Çelik Cad., Fuat Börekçi Cad. ve Agah Efendi sok. Altındağ/Ankara","x":null,"y":null,"aktif":true,"mahalle":"HACI BAYRAM","aciklama":null}},{"type":"Feature","geometry":{"type":"Point","coordinates":[31.92300014075,40.166637978591]},"properties":{"oid":53625,"global_id":"5805519F-FA30-34F8-17AC-9CEFD1F1B604","tur":"OTOPARKLAR","adi":"BEYPAZARI YOL BOYU OTOPARK (ARAÇ KAPASİTESİ: 181)","adres":"Rüstem Paşa İrfan Gümüşel Ankara Beypazarı - Dışkapı No: 0 / İç Kapı No: ","x":null,"y":null,"aktif":true,"mahalle":"BEYTEPE","aciklama":null}},{"type":"Feature","geometry":{"type":"Point","coordinates":[32.862535702137,39.92276502137]},"properties":{"oid":53626,"global_id":"D9ACBDFB-1516-1ED2-4715-2A84CA5DAF1F","tur":"OTOPARKLAR","adi":"KOLEJ AÇIK OTOPARKI (ARAÇ KAPASİTESİ: 85)","adres":"Kültür Mah. Çaldıran Sokak - Dışkapı No: 1 / İç Kapı No: 6","x":null,"y":null,"aktif":true,"mahalle":"KÜLTÜR","aciklama":null}},{"type":"Feature","geometry":{"type":"Point","coordinates":[32.853092953685,39.926795548905]},"properties":{"oid":53627,"global_id":"19842F7B-9895-730F-AF5F-524C87149741","tur":"OTOPARKLAR","adi":"HANIMELİ AÇIK OTOPARKI (ARAÇ KAPASİTESİ: 106)","adres":"Korkuteis Mah. Hanımeli Sk. - Dış Kapı No: 0 / İç Kapı No:","x":null,"y":null,"aktif":true,"mahalle":"KORKUTREİS","aciklama":null}},{"type":"Feature","geometry":{"type":"Point","coordinates":[32.852489017427,39.925224143692]},"properties":{"oid":53633,"global_id":"465CA30C-BEAA-5859-C72F-BB660F621EBA","tur":"OTOPARKLAR","adi":"NECATİBEY YOL BOYU OTOPARK (ARAÇ KAPASİTESİ: 108)","adres":"Korkut Reis Mah. Necatibey Cad. Ankara Çankaya - Dışkapı No: 60 / İç Kapı No: A","x":null,"y":null,"aktif":true,"mahalle":"KORKUTREİS","aciklama":null}},{"type":"Feature","geometry":{"type":"Point","coordinates":[32.854093751437,39.917942241926]},"properties":{"oid":53745,"global_id":"E015EDC1-0CC6-C68C-33A7-6A52E1AF45EB","tur":"BELKO VİTAMİN DEPOLARI","adi":"İmar Satış Büfesi","adres":"Devlet Mahallesi Atatürk Bulvarı No: 98/2 Çankaya","x":null,"y":null,"aktif":true,"mahalle":"DEVLET","aciklama":null}},{"type":"Feature","geometry":{"type":"Point","coordinates":[32.853348506845,39.92157963819]},"properties":{"oid":53748,"global_id":"CE2BD194-44DC-F014-A779-AD01095EE182","tur":"BELKO VİTAMİN DEPOLARI","adi":"Kızılay Satış Büfesi","adres":"Kızılay Mahallesi Atatürk Bulvarı No: 96/2 Çankaya","x":null,"y":null,"aktif":true,"mahalle":"KIZILAY","aciklama":null}},{"type":"Feature","geometry":{"type":"Point","coordinates":[32.84221050967,39.972543061404]},"properties":{"oid":53756,"global_id":"3CC53FF0-B279-0C62-3E3E-5D0F141A13BC","tur":"BELKO VİTAMİN DEPOLARI","adi":"Aşağı Eğlence Satış Büfesi","adres":"Aşağı Eğlence Mh. Giresun Cd. No: 1/1 Keçiören","x":null,"y":null,"aktif":true,"mahalle":"AŞAĞI EĞLENCE","aciklama":null}},{"type":"Feature","geometry":{"type":"Point","coordinates":[32.581028838996,39.962898377002]},"properties":{"oid":53757,"global_id":"BDCE8A1B-8514-2B1E-AB71-87DE6A7F183B","tur":"BELKO VİTAMİN DEPOLARI","adi":"Sincan Satış Büfesi","adres":"Atatürk Mh. Ankara Cd. No: 1/1 Sincan","x":null,"y":null,"aktif":true,"mahalle":"ATATÜRK","aciklama":null}},{"type":"Feature","geometry":{"type":"Point","coordinates":[32.866650226841,39.911276756581]},