{"type":"FeatureCollection","features":[{"type":"Feature","geometry":{"type":"Point","coordinates":[32.858983702139,39.927462958331]},"properties":{"oid":53904,"global_id":"48098F88-FD9F-6FFC-F149-E369F6149416","tur":"ÇOCUK MECLİSİ","adi":"Ankara Büyükşehir Belediyesi Çocuk Meclisi","adres":"Sağlık, A.Adnan Saygun Cd, 06430 Çankaya/Ankara","x":null,"y":null,"aktif":true,"mahalle":"SAĞLIK","aciklama":null}},{"type":"Feature","geometry":{"type":"Point","coordinates":[32.850079215218,39.889467769327]},"properties":{"oid":53700,"global_id":"E6509D5E-BA45-E7C9-212B-8BFCAF72757B","tur":"TEKNOLOJİ MERKEZLERİ","adi":"ANSERA TECHBRİDGE AKADEMİ","adres":"PORTAKAL ÇİÇEĞİ CADDESİ AZİYE MAHALLESİ ANSERA AVM NO:21 ÇANKAYA/ANKARA","x":null,"y":null,"aktif":true,"mahalle":"AZİZİYE","aciklama":null}},{"type":"Feature","geometry":{"type":"Point","coordinates":[32.786247624279,39.970372313418]},"properties":{"oid":9984,"global_id":"C7117C81-C58D-A78D-01A3-9E0A31040FBA","tur":"KADINLAR LOKALLERİ","adi":"DEMETEVLER KADINLAR LOKALİ","adres":"DEMETEVLERMAH","x":null,"y":null,"aktif":true,"mahalle":"YEŞİLEVLER","aciklama":null}},{"type":"Feature","geometry":{"type":"Point","coordinates":[32.854402,40.005303]},"properties":{"oid":9992,"global_id":"CA644FB9-43FA-8B0C-0A38-458A14CDBD1A","tur":"KADINLAR LOKALLERİ","adi":"KUŞÇAĞIZ KADINLAR LOKALİ","adres":"KUŞCAĞIZ","x":null,"y":null,"aktif":true,"mahalle":"KUŞCAĞIZ","aciklama":null}},{"type":"Feature","geometry":{"type":"Point","coordinates":[32.854262002356,40.005245984905]},"properties":{"oid":10100,"global_id":"84AD9759-B159-6E0E-C7A6-36CF252BC4B2","tur":"AİLE YAŞAM ve GENÇLİK MERKEZLERİ","adi":"KUŞCAĞIZ AİLE YAŞAM MERKEZİ","adres":"PINARBAŞI MAH.SANTORYUM CAD.NO:273","x":null,"y":null,"aktif":true,"mahalle":"KUŞCAĞIZ","aciklama":null}},{"type":"Feature","geometry":{"type":"Point","coordinates":[32.857729571848,39.94443640208]},"properties":{"oid":8934,"global_id":"FBC23497-3486-11D1-A150-364A2A3B5909","tur":"KADIN DANIŞMA MERKEZLERİ","adi":"KADIN DANIŞMA MERKEZİ","adres":"HACI BAYRAM MAH.","x":null,"y":null,"aktif":true,"mahalle":"HACI BAYRAM","aciklama":null}},{"type":"Feature","geometry":{"type":"Point","coordinates":[32.851350686505,39.940298027701]},"properties":{"oid":8933,"global_id":"D694152B-82AC-84E7-D54A-B4F40EA314D9","tur":"KADIN DANIŞMA MERKEZLERİ","adi":"KADIN DANIŞMA MERKEZİ","adres":"HACI BAYRAM MAH.","x":null,"y":null,"aktif":true,"mahalle":"HACI BAYRAM","aciklama":null}},{"type":"Feature","geometry":{"type":"Point","coordinates":[32.590100729396,39.984379769735]},"properties":{"oid":8900,"global_id":"1E305C1B-7980-4B7D-F91C-E2C6610FBF22","tur":"BELMEK - BELTEK","adi":"BELMEK ","adres":"Fatih Mah.","x":null,"y":null,"aktif":true,"mahalle":"YUNUS EMRE","aciklama":null}},{"type":"Feature","geometry":{"type":"Point","coordinates":[32.862207150498,39.920336507766]},"properties":{"oid":8868,"global_id":"141B143A-D4BC-8783-CBA6-1DCCC80938B3","tur":"ÇOCUK KULÜPLERİ","adi":"AHMETLER ÇOCUK KULÜBÜ","adres":"KÜLTÜR","x":null,"y":null,"aktif":true,"mahalle":"KÜLTÜR","aciklama":null}},{"type":"Feature","geometry":{"type":"Point","coordinates":[32.905896953109,39.910605092739]},"properties":{"oid":8870,"global_id":"800628DF-0E6F-CD7F-5E8F-BE93208FCB85","tur":"ÇOCUK KULÜPLERİ","adi":"MAMAK ÇOCUK KULÜBÜ","adres":"MUTLU","x":null,"y":null,"aktif":true,"mahalle":"MUTLU","aciklama":null}},{"type":"Feature","geometry":{"type":"Point","coordinates":[32.288329,39.997758]},"properties":{"oid":8872,"global_id":"F439AC8C-C65B-194C-6B14-62C30A59CB70","tur":"ÇOCUK KULÜPLERİ","adi":"SİNANLI ÇOCUK KULÜBÜ","adres":"HOCA SİNAN","x":null,"y":null,"aktif":true,"mahalle":"SİNANLI HOCASİNAN","aciklama":null}},{"type":"Feature","geometry":{"type":"Point","coordinates":[32.581002681646,39.963361468717]},"properties":{"oid":8874,"global_id":"FB3CEFD4-5470-4BC1-8827-A317C209499D","tur":"ÇOCUK KULÜPLERİ","adi":"SİNCAN ÇOCUK KULÜBÜ","adres":"ATATÜRK","x":null,"y":null,"aktif":true,"mahalle":"ATATÜRK","aciklama":null}},{"type":"Feature","geometry":{"type":"Point","coordinates":[32.801274415605,39.895648432601]},"properties":{"oid":9968,"global_id":"95845F16-B18C-6603-B858-347081186237","tur":"GÜNDÜZ BAKIM EVLERİ","adi":"İŞCİ BLOKLARI GÜNDÜZ BAKIMEVİ","adres":"ÇUKURAMBAR MAH.","x":null,"y":null,"aktif":true,"mahalle":"ÇUKURAMBAR","aciklama":null}},{"type":"Feature","geometry":{"type":"Point","coordinates":[32.862230985158,39.92029802984]},"properties":{"oid":9970,"global_id":"684CD5C5-0DA4-C868-20D5-E81AA09AD614","tur":"GÜNDÜZ BAKIM EVLERİ","adi":"AHMETLER GÜNDÜZ BAKIMEVİ","adres":"KÜLTÜR MAH.","x":null,"y":null,"aktif":true,"mahalle":"KÜLTÜR","aciklama":null}},{"type":"Feature","geometry":{"type":"Point","coordinates":[32.862113354967,39.920446262801]},"properties":{"oid":9977,"global_id":"AB161DE6-6575-151D-EA9C-3303A0F2241D","tur":"KADINLAR LOKALLERİ","adi":"AHMETLER KADINLAR LOKALİ","adres":"KÜLTÜR","x":null,"y":null,"aktif":true,"mahalle":"KÜLTÜR","aciklama":null}},{"type":"Feature","geometry":{"type":"Point","coordinates":[32.33048511079,40.019219309829]},"properties":{"oid":9979,"global_id":"3DB15AED-B072-63F4-22F7-F488BEF29F46","tur":"KADINLAR LOKALLERİ","adi":"AYAŞ KADINLAR LOKALİ","adres":"ÖMEROĞLU","x":null,"y":null,"aktif":true,"mahalle":"HACIRECEP","aciklama":null}},{"type":"Feature","geometry":{"type":"Point","coordinates":[32.869527676471,39.927003967335]},"properties":{"oid":9964,"global_id":"B555C8A2-21C3-D52B-C31B-6D13CB3EEF4E","tur":"GİYSİ YIKAMA MERKEZLERİ","adi":"KURTULUŞ GİYSİ YIKAMA MERKEZİ","adres":"ÇAMLITEPE MAH.","x":null,"y":null,"aktif":true,"mahalle":"ÇAMLITEPE","aciklama":null}},{"type":"Feature","geometry":{"type":"Point","coordinates":[32.687994422079,40.234676649053]},"properties":{"oid":10093,"global_id":"70E5884F-7292-7EED-D656-195562A7142D","tur":"AİLE YAŞAM ve GENÇLİK MERKEZLERİ","adi":"KAZAN AİLE YAŞAM MERKEZİ","adres":"FATİH MH.NO:295 ","x":null,"y":null,"aktif":true,"mahalle":"FATİH","aciklama":null}},{"type":"Feature","geometry":{"type":"Point","coordinates":[32.813938062394,39.770997427714]},"properties":{"oid":9987,"global_id":"B45B29E1-7F59-7E6A-7FEB-0809766F3F58","tur":"KADINLAR LOKALLERİ","adi":"GÖLBAŞI K.L.","adres":"BAHÇELİEVLER","x":null,"y":null,"aktif":true,"mahalle":"BAHÇELİEVLER","aciklama":null}},{"type":"Feature","geometry":{"type":"Point","coordinates":[32.589182245457,39.992174603292]},"properties":{"oid":9988,"global_id":"0C9D25C0-99FD-4516-EDDA-BE477E5ADD43","tur":"KADINLAR LOKALLERİ","adi":"HARİKALAR DİYARI KADINLAR LOKALİ","adres":"YUNUS EMRE","x":null,"y":null,"aktif":true,"mahalle":"ULUBATLI HASAN","aciklama":null}},{"type":"Feature","geometry":{"type":"Point","coordinates":[33.186760645015,39.999176095164]},"properties":{"oid":9989,"global_id":"BE40EA75-026F-97D2-AD63-FC7BC32A20B4","tur":"KADINLAR LOKALLERİ","adi":"HASANOĞLAN KADINLAR LOKALİ","adres":"HAVUZBAŞI","x":null,"y":null,"aktif":true,"mahalle":"HASANOĞLAN HAVUZBAŞI","aciklama":null}},{"type":"Feature","geometry":{"type":"Point","coordinates":[32.687389,40.234649]},"properties":{"oid":9991,"global_id":"2F994644-A7B4-6345-D44E-77F2E91C2491","tur":"KADINLAR LOKALLERİ","adi":"KAHRAMAN KAZAN KADINLAR LOKALİ","adres":"FATİH","x":null,"y":null,"aktif":true,"mahalle":"FATİH","aciklama":null}},{"type":"Feature","geometry":{"type":"Point","coordinates":[32.498390081719,40.019131588507]},"properties":{"oid":10110,"global_id":"7622909A-FB55-57F9-BB01-D7C8C6C0A331","tur":"AİLE YAŞAM ve GENÇLİK MERKEZLERİ","adi":"YENİKENT ORTAPINAR GENÇLİK MERKEZİ","adres":"\"FEVZİ ÇAKMAK MAHALLESİ  70.CADDE 1.VE 2.ETAP TOPLU KONUTLARI NO:H2/23 NO:49-56 ORTAPINAR/YENİKENT/SİNCAN\"","x":null,"y":null,"aktif":true,"mahalle":"FEVZİ ÇAKMAK","aciklama":null}},{"type":"Feature","geometry":{"type":"Point","coordinates":[32.703856,39.89439]},"properties":{"oid":9997,"global_id":"81D9498F-FC65-3445-AE71-819189111F6C","tur":"KADINLAR LOKALLERİ","adi":"ÜMİTKÖY KADINLAR LOKALİ","adres":"MUTLUKENT","x":null,"y":null,"aktif":true,"mahalle":"MUTLUKENT","aciklama":null}},{"type":"Feature","geometry":{"type":"Point","coordinates":[32.709331539619,39.972172978486]},"properties":{"oid":8873,"global_id":"EE3711D6-2100-FDF4-457B-E1FE1B88E4CD","tur":"ÇOCUK KULÜPLERİ","adi":"BATIPARK ÇOCUK\n KULÜBÜ","adres":"KARDELEN","x":null,"y":null,"aktif":true,"mahalle":"KARDELEN","aciklama":null}},{"type":"Feature","geometry":{"type":"Point","coordinates":[32.84935983115,39.939031471977]},"properties":{"oid":9961,"global_id":"3D072786-75C6-C892-85CF-6E589D372B78","tur":"EVLENDİRME MERKEZİ","adi":"EVLENDİRME MERKEZİ","adres":"HACI BAYRAM MAH.","x":null,"y":null,"aktif":true,"mahalle":"HACI BAYRAM","aciklama":null}},{"type":"Feature","geometry":{"type":"Point","coordinates":[32.857267368909,39.94283106129]},"properties":{"oid":9962,"global_id":"BB1B482C-D482-5059-DD1F-7D4E1717D6C5","tur":"GAZİLER MERKEZİ","adi":"GAZİLER MERKEZİ","adres":"HACI BAYRAM MAH.","x":null,"y":null,"aktif":true,"mahalle":"HACI BAYRAM","aciklama":null}},{"type":"Feature","geometry":{"type":"Point","coordinates":[32.828058786,39.925120417837]},"properties":{"oid":9980,"global_id":"ACB931CD-89C8-EDA3-C7C7-FC4A19BCD3E5","tur":"KADINLAR LOKALLERİ","adi":"BAHÇELİEVLER KADINLAR LOKALİ","adres":"BAHÇELİEVLER","x":null,"y":null,"aktif":true,"mahalle":"BAHÇELİEVLER","aciklama":null}},{"type":"Feature","geometry":{"type":"Point","coordinates":[32.847268113582,39.887307449965]},"properties":{"oid":9982,"global_id":"81B93E3B-75FC-2CF1-CF64-C370110AC47F","tur":"KADINLAR LOKALLERİ","adi":"ÇANKAYA KADINLAR LOKALİ","adres":"GÜZELTEPE","x":null,"y":null,"aktif":true,"mahalle":"AZİZİYE","aciklama":null}},{"type":"Feature","geometry":{"type":"Point","coordinates":[32.944648526868,39.926087821266]},"properties":{"oid":9965,"global_id":"07C513F5-DA5B-4534-10FD-D049054CB828","tur":"GİYSİ YIKAMA MERKEZLERİ","adi":"ARAPLAR GİYSİ YIKAMA MERKEZİ","adres":"ARAPLAR MAH.","x":null,"y":null,"aktif":true,"mahalle":"ARAPLAR","aciklama":null}},{"type":"Feature","geometry":{"type":"Point","coordinates":[32.896035453948,39.926709317236]},"properties":{"oid":10108,"global_id":"96572CA6-E14B-FC66-8FC5-AC931B660E2E","tur":"AİLE YAŞAM ve GENÇLİK MERKEZLERİ","adi":"MAMAK GENÇLİK MERKEZİ","adres":"SAİME KADIN MAH.ASIM GÜNDÜZ CAD.KAT:1 NO:1 ","x":null,"y":null,"aktif":true,"mahalle":"SAİMEKADIN","aciklama":null}},{"type":"Feature","geometry":{"type":"Point","coordinates":[33.086622112387,40.131736433674]},"properties":{"oid":10099,"global_id":"B29B66DB-03F7-7CDB-839B-6B500282A410","tur":"AİLE YAŞAM ve GENÇLİK MERKEZLERİ","adi":"AKYURT AİLE YAŞAM MERKEZİ","adres":"BEYAZIT MAH. 9 MAYIS 90 CAD. NO:1","x":null,"y":null,"aktif":true,"mahalle":"BEYAZIT","aciklama":null}},{"type":"Feature","geometry":{"type":"Point","coordinates":[33.226631483235,39.922160388262]},"properties":{"oid":10109,"global_id":"3967C2F4-0F64-8D97-FCB3-B5F7E3F4B25E","tur":"AİLE YAŞAM ve GENÇLİK MERKEZLERİ","adi":"ELMADAĞ GENÇLİK MERKEZİ VE ÇOCUK KULÜBÜ","adres":"İSMETPAŞA MAHALLESİ BÜLENT ECEVİT CADDESİ NO:42","x":null,"y":null,"aktif":true,"mahalle":"KEMALPAŞA","aciklama":null}},{"type":"Feature","geometry":{"type":"Point","coordinates":[32.608343354968,39.959703839226]},"properties":{"oid":9986,"global_id":"DBB9F9D6-3F0A-0378-DBCC-ED8BB4A3F4A3","tur":"KADINLAR LOKALLERİ","adi":"ELVANKENT KADINLAR LOKALİ","adres":"ATAKENT","x":null,"y":null,"aktif":true,"mahalle":"ATAKENT","aciklama":null}},{"type":"Feature","geometry":{"type":"Point","coordinates":[33.409436,40.095966]},"properties":{"oid":9990,"global_id":"D7114C42-5B3B-A77E-4E55-0970FA8CF7CD","tur":"KADINLAR LOKALLERİ","adi":"KALECİK KADINLAR LOKALİ","adres":"AHİKEMAL ŞENYURT","x":null,"y":null,"aktif":true,"mahalle":"AHİKEMALŞENYURT","aciklama":null}},{"type":"Feature","geometry":{"type":"Point","coordinates":[32.829318,39.972896]},"properties":{"oid":9993,"global_id":"00DD5F1F-4345-6AA4-8971-A2F70B04CFB8","tur":"KADINLAR LOKALLERİ","adi":"OSMANLI KADINLAR LOKALİ","adres":"AŞAĞI EĞLENCE","x":null,"y":null,"aktif":true,"mahalle":"AŞAĞI EĞLENCE","aciklama":null}},{"type":"Feature","geometry":{"type":"Point","coordinates":[32.829318,39.972896]},"properties":{"oid":9994,"global_id":"65B4A5D9-0624-4EC3-C9AD-845B88671699","tur":"KADINLAR LOKALLERİ","adi":"SİNCAN KADINLAR LOKALİ","adres":"AKŞEMSETTİN","x":null,"y":null,"aktif":true,"mahalle":"AŞAĞI EĞLENCE","aciklama":null}},{"type":"Feature","geometry":{"type":"Point","coordinates":[32.888045,39.936494]},"properties":{"oid":9995,"global_id":"D6A739AA-B9D2-FBBF-5E30-B94EF8EB2C1C","tur":"KADINLAR LOKALLERİ","adi":"ŞAFAKTEPE KADINLAR LOKALİ","adres":"ŞAFAKTEPE","x":null,"y":null,"aktif":true,"mahalle":"ŞAFAKTEPE","aciklama":null}},{"type":"Feature","geometry":{"type":"Point","coordinates":[32.800602,39.979406]},"properties":{"oid":9996,"global_id":"7E612090-5F0B-A8C1-74F9-B9D82B2E32F5","tur":"KADINLAR LOKALLERİ","adi":"ŞENTEPE KADINLAR LOKALİ","adres":"GÜVENTEPE","x":null,"y":null,"aktif":true,"mahalle":"GÜVENTEPE","aciklama":null}},{"type":"Feature","geometry":{"type":"Point","coordinates":[32.860236973902,39.913558027852]},"properties":{"oid":10092,"global_id":"7C59341D-A7AA-0804-D54E-7307F7948AE8","tur":"YAŞLILARA HİZMET MERKEZİ","adi":"YAŞLILARA HİZMET MERKEZİ","adres":"KAVAKLIDERE MAH.","x":null,"y":null,"aktif":true,"mahalle":"KAVAKLIDERE","aciklama":null}},{"type":"Feature","geometry":{"type":"Point","coordinates":[32.589895803602,39.984549372456]},"properties":{"oid":10101,"global_id":"2CD0AF82-447A-392D-528D-F9FE0516E8BC","tur":"AİLE YAŞAM ve GENÇLİK MERKEZLERİ","adi":"SİNCAN AİLE YAŞAM MERKEZİ","adres":"Yunus Emre Mh. Gazi Mustafa Kemal Bulvarı No: 14 Sincan","x":null,"y":null,"aktif":true,"mahalle":"YUNUS EMRE","aciklama":null}},{"type":"Feature","geometry":{"type":"Point","coordinates":[32.831142796845,39.990297838168]},"properties":{"oid":10102,"global_id":"E7F37608-2E15-10D3-A200-770A2153E8A6","tur":"AİLE YAŞAM ve GENÇLİK MERKEZLERİ","adi":"ESERTEPE AİLE YAŞAM MERKEZİ","adres":"ŞHT. MUSTAFA ERCİGEZ CD NO:2","x":null,"y":null,"aktif":true,"mahalle":"ESERTEPE","aciklama":null}},{"type":"Feature","geometry":{"type":"Point","coordinates":[32.773409071639,39.990042007075]},"properties":{"oid":10103,"global_id":"77A23D6E-6984-6271-F5BC-A46BBD41EB5B","tur":"AİLE YAŞAM ve GENÇLİK MERKEZLERİ","adi":"YAHYALAR AİLE YAŞAM MERKEZİ","adres":"İVEDİKKÖY MAH. 990/1.SOKAK","x":null,"y":null,"aktif":true,"mahalle":"İVEDİKKÖY","aciklama":null}},{"type":"Feature","geometry":{"type":"Point","coordinates":[32.14066841118697,39.57835874000982]},"properties":{"oid":10105,"global_id":"FF2A8CF2-CACC-96D8-0213-E551A937EFED","tur":"AİLE YAŞAM ve GENÇLİK MERKEZLERİ","adi":"POLATLI AİLE YAŞAM MERKEZİ","adres":"ZAFER MAH. ADNAN MENDERES CAD.84/A ","x":null,"y":null,"aktif":true,"mahalle":"ZAFER","aciklama":null}},{"type":"Feature","geometry":{"type":"Point","coordinates":[32.819476886374,39.944033188451]},"properties":{"oid":10107,"global_id":"8FD3990C-286C-2C91-45C4-672BACFD822B","tur":"AİLE YAŞAM ve GENÇLİK MERKEZLERİ","adi":"YENİMAHALLE GENÇLİK MERKEZİ","adres":"EMNİYET M.SİLAHTAR C.36","x":null,"y":null,"aktif":true,"mahalle":"EMNİYET","aciklama":null}},{"type":"Feature","geometry":{"type":"Point","coordinates":[32.142583321731,39.579947565078]},"properties":{"oid":8929,"global_id":"EF6348CB-ACE6-46F7-8B20-7F68B9821B09","tur":"BELMEK - BELTEK","adi":"BELMEK ","adres":"Zafer Mah.","x":null,"y":null,"aktif":true,"mahalle":"ZAFER","aciklama":null}},{"type":"Feature","geometry":{"type":"Point","coordinates":[33.034577544522,40.214951306623]},"properties":{"oid":8928,"global_id":"4A200FAC-32FD-3E8B-CE83-8062BE080838","tur":"BELMEK - BELTEK","adi":"BELMEK ","adres":"Yıldırım Beyazıt Mah.","x":null,"y":null,"aktif":true,"mahalle":"YILDIRIM BEYAZIT","aciklama":null}},{"type":"Feature","geometry":{"type":"Point","coordinates":[32.95905105926,39.907231667937]},"properties":{"oid":8927,"global_id":"03D54847-0BA6-04C4-F6EF-0B1AABD398B4","tur":"BELMEK - BELTEK","adi":"BELMEK ","adres":"Yeşilbayır Mah.","x":null,"y":null,"aktif":true,"mahalle":"YEŞİLBAYIR","aciklama":null}},{"type":"Feature","geometry":{"type":"Point","coordinates":[32.814575226287,39.964743270905]},"properties":{"oid":8926,"global_id":"3A75AAF7-C58F-4F5D-0415-A7C0375E13DD","tur":"BELMEK - BELTEK","adi":"BELMEK ","adres":"Yeniçağ Mah.","x":null,"y":null,"aktif":true,"mahalle":"YENİÇAĞ","aciklama":null}},{"type":"Feature","geometry":{"type":"Point","coordinates":[32.830089504964,39.973729050735]},"properties":{"oid":8925,"global_id":"0DEE4F7A-13B1-F2DF-46C2-5171483DA496","tur":"BELMEK - BELTEK","adi":"BELMEK ","adres":"Etlik Mah.","x":null,"y":null,"aktif":true,"mahalle":"AŞAĞI EĞLENCE","aciklama":null}},{"type":"Feature","geometry":{"type":"Point","coordinates":[32.944670526772,39.915114872594]},"properties":{"oid":8924,"global_id":"E9F13135-C4E5-C9DE-88BE-C3A41D68F927","tur":"BELMEK - BELTEK","adi":"BELMEK ","adres":"Üreğil Mah.","x":null,"y":null,"aktif":true,"mahalle":"ÜREĞİL","aciklama":null}},{"type":"Feature","geometry":{"type":"Point","coordinates":[32.872251627151,40.005558243]},"properties":{"oid":8923,"global_id":"958E2C9F-73DD-4C18-2CDC-FBB8C3D7D1FD","tur":"BELMEK - BELTEK","adi":"BELMEK ","adres":"Uyanış mah.","x":null,"y":null,"aktif":true,"mahalle":"UYANIŞ","aciklama":null}},{"type":"Feature","geometry":{"type":"Point","coordinates":[32.87584382457,39.895021889907]},"properties":{"oid":8922,"global_id":"98817F6A-1C98-F436-5580-2A595D6349A4","tur":"BELMEK - BELTEK","adi":"BELMEK ","adres":"Büyükestat Mah.","x":null,"y":null,"aktif":true,"mahalle":"BÜYÜKESAT","aciklama":null}},{"type":"Feature","geometry":{"type":"Point","coordinates":[32.858904254041,40.017397723128]},"properties":{"oid":8921,"global_id":"6C80C3A2-D167-2801-E8DA-0B2B552821BF","tur":"BELMEK - BELTEK","adi":"BELMEK ","adres":"Ufuktepe mah.","x":null,"y":null,"aktif":true,"mahalle":"OSMANGAZİ","aciklama":null}},{"type":"Feature","geometry":{"type":"Point","coordinates":[32.695545269864,39.987651525402]},"properties":{"oid":8920,"global_id":"3BBA1C6D-E6A8-FE05-2591-274168DC3E82","tur":"BELMEK - BELTEK","adi":"BELMEK ","adres":"Turgut Özal Mah.","x":null,"y":null,"aktif":true,"mahalle":"TURGUT ÖZAL","aciklama":null}},{"type":"Feature","geometry":{"type":"Point","coordinates":[32.568496913626,39.986974170589]},"properties":{"oid":8919,"global_id":"D50CCFC3-D3FB-E037-0B11-202FA0CE782F","tur":"BELMEK - BELTEK","adi":"BELMEK ","adres":"Törekent Mah.","x":null,"y":null,"aktif":true,"mahalle":"TÖREKENT","aciklama":null}},{"type":"Feature","geometry":{"type":"Point","coordinates":[32.863520471603,39.985427410732]},"properties":{"oid":8918,"global_id":"F5773E51-6673-72AC-D47A-ABBE77476C19","tur":"BELMEK - BELTEK","adi":"BELMEK ","adres":"Tepebaşı Mah.","x":null,"y":null,"aktif":true,"mahalle":"TEPEBAŞI","aciklama":null}},{"type":"Feature","geometry":{"type":"Point","coordinates":[32.880705891324,39.886579103275]},"properties":{"oid":8917,"global_id":"CF169308-BDDF-13FF-FD6C-7967DBDB3DF7","tur":"BELMEK - BELTEK","adi":"BELMEK ","adres":"Kırkkonaklar Mah.","x":null,"y":null,"aktif":true,"mahalle":"KIRKKONAKLAR","aciklama":null}},{"type":"Feature","geometry":{"type":"Point","coordinates":[32.659863895958,39.944649400546]},"properties":{"oid":8916,"global_id":"3F4664CF-7570-1AC5-9A51-53D83BF8931E","tur":"BELMEK - BELTEK","adi":"BELMEK ","adres":"Şeker Mah.","x":null,"y":null,"aktif":true,"mahalle":"30 AĞUSTOS","aciklama":null}},{"type":"Feature","geometry":{"type":"Point","coordinates":[32.885276547956,39.914801837603]},"properties":{"oid":8915,"global_id":"37DE2136-206F-2280-B456-DD1C3D0A9078","tur":"BELMEK - BELTEK","adi":"BELMEK ","adres":"Akdere Mah.","x":null,"y":null,"aktif":true,"mahalle":"TÜRKÖZÜ","aciklama":null}},{"type":"Feature","geometry":{"type":"Point","coordinates":[32.870621631174,39.978301094937]},"properties":{"oid":8914,"global_id":"BBC636A8-A26B-9F41-D7EC-AD77A3CE470D","tur":"BELMEK - BELTEK","adi":"BELMEK ","adres":"Şefkat Mah.","x":null,"y":null,"aktif":true,"mahalle":"ŞEFKAT","aciklama":null}},{"type":"Feature","geometry":{"type":"Point","coordinates":[32.888044749601,39.936319943693]},"properties":{"oid":8913,"global_id":"8C0DBF96-1675-09FA-CA18-B690292B9018","tur":"BELMEK - BELTEK","adi":"BELMEK ","adres":"Şafaktepe Mah.","x":null,"y":null,"aktif":true,"mahalle":"ŞAFAKTEPE","aciklama":null}},{"type":"Feature","geometry":{"type":"Point","coordinates":[32.647076623052,39.942007000262]},"properties":{"oid":8912,"global_id":"9090FBF2-9A7B-19EC-685B-1060618D7CD8","tur":"BELMEK - BELTEK","adi":"BELMEK ","adres":"Süvari Mah.","x":null,"y":null,"aktif":true,"mahalle":"SÜVARİ","aciklama":null}},{"type":"Feature","geometry":{"type":"Point","coordinates":[32.86552986123,39.876983564479]},"properties":{"oid":8911,"global_id":"651982C8-D1F8-94C4-9066-FA9203B7703F","tur":"BELMEK - BELTEK","adi":"BELMEK ","adres":"Sancak Mah.","x":null,"y":null,"aktif":true,"mahalle":"SANCAK","aciklama":null}},{"type":"Feature","geometry":{"type":"Point","coordinates":[32.855128255359,39.903287340377]},"properties":{"oid":8910,"global_id":"9C8EF879-A97B-E9A1-21CD-1FF9AAA7A392","tur":"BELMEK - BELTEK","adi":"BELMEK ","adres":"Aşağı Ayrancı Mah.","x":null,"y":null,"aktif":true,"mahalle":"REMZİ OĞUZ ARIK","aciklama":null}},{"type":"Feature","geometry":{"type":"Point","coordinates":[32.835238579284,39.980135016347]},"properties":{"oid":8909,"global_id":"343C4AE6-D15B-2FEC-9B63-C96B199D247E","tur":"BELMEK - BELTEK","adi":"BELMEK ","adres":"Etlik Mah.","x":null,"y":null,"aktif":true,"mahalle":"ETLİK","aciklama":null}},{"type":"Feature","geometry":{"type":"Point","coordinates":[32.854270858677,40.005079197393]},"properties":{"oid":8908,"global_id":"E22EEC1F-62AF-4383-304A-5402D8C9CD76","tur":"BELMEK - BELTEK","adi":"BELMEK ","adres":"Kuşcağız Mah.","x":null,"y":null,"aktif":true,"mahalle":"KUŞCAĞIZ","aciklama":null}},{"type":"Feature","geometry":{"type":"Point","coordinates":[32.718977765755,39.965094088852]},"properties":{"oid":8907,"global_id":"3EB7634D-186D-ECBC-AE22-36495FC94895","tur":"BELMEK - BELTEK","adi":"BELMEK ","adres":"Kentkoop Mah.","x":null,"y":null,"aktif":true,"mahalle":"KENTKOOP","aciklama":null}},{"type":"Feature","geometry":{"type":"Point","coordinates":[32.875941373926,39.96982655371]},"properties":{"oid":8906,"global_id":"C94E9A52-8B3F-D06F-A2BB-4BC1A3AA3E47","tur":"BELMEK - BELTEK","adi":"BELMEK ","adres":"Subayevleri Mah.","x":null,"y":null,"aktif":true,"mahalle":"KAVACIK SUBAYEVLERİ","aciklama":null}},{"type":"Feature","geometry":{"type":"Point","coordinates":[32.878022705522,39.982896927199]},"properties":{"oid":8905,"global_id":"5739D7DC-5440-A662-D517-465FFB39DBEC","tur":"BELMEK - BELTEK","adi":"BELMEK ","adres":"Kamil Ocak Mah.","x":null,"y":null,"aktif":true,"mahalle":"KAMİL OCAK","aciklama":null}},{"type":"Feature","geometry":{"type":"Point","coordinates":[32.828285098842,39.880437862681]},"properties":{"oid":8904,"global_id":"A17476EE-1675-647C-1DFE-BDA00E7C2624","tur":"BELMEK - BELTEK","adi":"BELMEK ","adres":"Şehit CevdetÖzdemir Mah.","x":null,"y":null,"aktif":true,"mahalle":"ŞEHİT CEVDET ÖZDEMİR","aciklama":null}},{"type":"Feature","geometry":{"type":"Point","coordinates":[33.235146009561,39.918807590737]},"properties":{"oid":8903,"global_id":"BEEC804A-E0F0-93ED-B73B-C868B6EA5FD2","tur":"BELMEK - BELTEK","adi":"BELMEK ","adres":"İsmetpaşa Mah.","x":null,"y":null,"aktif":true,"mahalle":"İSMETPAŞA","aciklama":null}},{"type":"Feature","geometry":{"type":"Point","coordinates":[32.846245333189,39.985221290758]},"properties":{"oid":8902,"global_id":"2A01E634-6E13-75F2-489F-86CA7314C1F0","tur":"BELMEK - BELTEK","adi":"BELMEK ","adres":"İncirli Mah.","x":null,"y":null,"aktif":true,"mahalle":"İNCİRLİ","aciklama":null}},{"type":"Feature","geometry":{"type":"Point","coordinates":[32.845429075345,39.890339586519]},"properties":{"oid":8901,"global_id":"0B45E5A8-E2F3-C571-87DF-0CE842DDC9AF","tur":"BELMEK - BELTEK","adi":"BELMEK ","adres":"Yukarı Ayrancı Mah.","x":null,"y":null,"aktif":true,"mahalle":"AYRANCI","aciklama":null}},{"type":"Feature","geometry":{"type":"Point","coordinates":[32.859164078906,39.944789670538]},"properties":{"oid":8899,"global_id":"FB2E997B-AE58-2552-E160-F7C5F0D53424","tur":"BELMEK - BELTEK","adi":"BELMEK ","adres":"Hacı Bayram Mah.","x":null,"y":null,"aktif":true,"mahalle":"HACI BAYRAM","aciklama":null}},{"type":"Feature","geometry":{"type":"Point","coordinates":[32.835620718629,39.982614600818]},"properties":{"oid":8898,"global_id":"F1845E1A-2060-9B49-2673-94E442DCE228","tur":"BELMEK - BELTEK","adi":"BELMEK ","adres":"Emrah Mah.","x":null,"y":null,"aktif":true,"mahalle":"ESERTEPE","aciklama":null}},{"type":"Feature","geometry":{"type":"Point","coordinates":[32.859893212253,39.923869536072]},"properties":{"oid":8897,"global_id":"A9B43448-6A9D-5C9F-5242-1E072A1A7AED","tur":"BELMEK - BELTEK","adi":"BELMEK ","adres":"Fidanlık Mah.","x":null,"y":null,"aktif":true,"mahalle":"FİDANLIK","aciklama":null}},{"type":"Feature","geometry":{"type":"Point","coordinates":[32.899348622763,40.042747298012]},"properties":{"oid":8896,"global_id":"DF25BA36-F837-1DAC-45E5-D84E017440C4","tur":"BELMEK - BELTEK","adi":"BELMEK ","adres":"Fatih Mah.","x":null,"y":null,"aktif":true,"mahalle":"FATİH","aciklama":null}},{"type":"Feature","geometry":{"type":"Point","coordinates":[32.841955381636,39.789503262895]},"properties":{"oid":8895,"global_id":"F7EDF1B4-CE9B-DEA7-3C4C-A941A788916D","tur":"BELMEK - BELTEK","adi":"BELMEK ","adres":"Eymir Mah.","x":null,"y":null,"aktif":true,"mahalle":"EYMİR","aciklama":null}},{"type":"Feature","geometry":{"type":"Point","coordinates":[32.647542366829,39.871572347438]},"properties":{"oid":8894,"global_id":"E3499F88-9CE6-6935-99C1-85F99231F231","tur":"BELMEK - BELTEK","adi":"BELMEK ","adres":"Konutkent Mah.","x":null,"y":null,"aktif":true,"mahalle":"KONUTKENT","aciklama":null}},{"type":"Feature","geometry":{"type":"Point","coordinates":[32.866095365511,39.876993942415]},"properties":{"oid":8893,"global_id":"748D0A62-7ACC-3CC3-1FD0-FD6C6917F929","tur":"BELMEK - BELTEK","adi":"BELMEK ","adres":"Sancak Mah.","x":null,"y":null,"aktif":true,"mahalle":"BİRLİK","aciklama":null}},{"type":"Feature","geometry":{"type":"Point","coordinates":[32.927249289279,39.898448841417]},"properties":{"oid":8892,"global_id":"DF96328D-AD2E-B7BF-DF75-F6F6D45B0E7E","tur":"BELMEK - BELTEK","adi":"BELMEK ","adres":"Ege Mah.","x":null,"y":null,"aktif":true,"mahalle":"DURALİ ALIÇ","aciklama":null}},{"type":"Feature","geometry":{"type":"Point","coordinates":[32.662265717746,39.827602845785]},"properties":{"oid":8891,"global_id":"B1C6D7D5-690C-90B3-D757-037F7EAC78BA","tur":"BELMEK - BELTEK","adi":"BELMEK ","adres":"Dodurga Mah.","x":null,"y":null,"aktif":true,"mahalle":"DODURGA","aciklama":null}},{"type":"Feature","geometry":{"type":"Point","coordinates":[32.888246032051,39.891198723421]},"properties":{"oid":8890,"global_id":"1508AF7E-5955-A1AD-3DCA-767D7404FA29","tur":"BELMEK - BELTEK","adi":"BELMEK ","adres":"Çiğdem Mah.","x":null,"y":null,"aktif":true,"mahalle":"KIRKKONAKLAR","aciklama":null}},{"type":"Feature","geometry":{"type":"Point","coordinates":[32.886543333187,39.985386895856]},"properties":{"oid":8889,"global_id":"96849724-7518-41CA-F9D6-B13066A430AD","tur":"BELMEK - BELTEK","adi":"BELMEK ","adres":"Çaldıran Mah.","x":null,"y":null,"aktif":true,"mahalle":"ÇALDIRAN","aciklama":null}},{"type":"Feature","geometry":{"type":"Point","coordinates":[32.814572100218,39.88158972989]},"properties":{"oid":8888,"global_id":"91B3C250-AF57-7C67-7FC8-832FFF5F5C92","tur":"BELMEK - BELTEK","adi":"BELMEK ","adres":"Cevizlidere Mah.","x":null,"y":null,"aktif":true,"mahalle":"CEVİZLİDERE","aciklama":null}},{"type":"Feature","geometry":{"type":"Point","coordinates":[32.848024200525,39.899346575023]},"properties":{"oid":8887,"global_id":"9405DA9D-DEF2-5BFC-045D-F6D47B772A56","tur":"BELMEK - BELTEK","adi":"BELMEK ","adres":"Ayrancı Mah.","x":null,"y":null,"aktif":true,"mahalle":"AYRANCI","aciklama":null}},{"type":"Feature","geometry":{"type":"Point","coordinates":[32.580965369873,39.962677638861]},"properties":{"oid":8886,"global_id":"3AC7BCA0-653C-6EB8-0195-FBFDF2040BCE","tur":"BELMEK - BELTEK","adi":"BELMEK ","adres":"Atatürk Mah.","x":null,"y":null,"aktif":true,"mahalle":"ATATÜRK","aciklama":null}},{"type":"Feature","geometry":{"type":"Point","coordinates":[32.609244603106,39.958559302205]},"properties":{"oid":8885,"global_id":"D4385D32-0371-B2A8-2D56-E4AFA7377E66","tur":"BELMEK - BELTEK","adi":"BELMEK ","adres":"Atakent Mah.","x":null,"y":null,"aktif":true,"mahalle":"ATAKENT","aciklama":null}},{"type":"Feature","geometry":{"type":"Point","coordinates":[32.609244603106,39.958559302205]},"properties":{"oid":8884,"global_id":"0FF3A2E3-CA8F-B407-F3C9-9C0174E1F87A","tur":"BELMEK - BELTEK","adi":"BELMEK ","adres":"Atakent Mah.","x":null,"y":null,"aktif":true,"mahalle":"ATAKENT","aciklama":null}},{"type":"Feature","geometry":{"type":"Point","coordinates":[32.897141416824,39.925476311288]},"properties":{"oid":8883,"global_id":"70091EB5-8966-6A7C-0A65-3D765EBB11C8","tur":"BELMEK - BELTEK","adi":"BELMEK ","adres":"Aşık Veysel Mah.","x":null,"y":null,"aktif":true,"mahalle":"AŞIK VEYSEL","aciklama":null}},{"type":"Feature","geometry":{"type":"Point","coordinates":[32.775845365087,39.983371541882]},"properties":{"oid":8882,"global_id":"7C046A30-E37E-9D35-68AE-7572040CBE25","tur":"BELMEK - BELTEK","adi":"BELMEK ","adres":"Aşağı Yahyalar Mah.","x":null,"y":null,"aktif":true,"mahalle":"AŞAĞI YAHYALAR","aciklama":null}},{"type":"Feature","geometry":{"type":"Point","coordinates":[32.689835967707,39.888631291272]},"properties":{"oid":8881,"global_id":"05ECBA22-64A3-8274-F1DD-0D2DA1383C5D","tur":"BELMEK - BELTEK","adi":"BELMEK ","adres":"Koru Mah.","x":null,"y":null,"aktif":true,"mahalle":"KORU","aciklama":null}},{"type":"Feature","geometry":{"type":"Point","coordinates":[32.586843488262,39.96488171042]},"properties":{"oid":8880,"global_id":"69A3F03D-422C-4ECC-1C18-9DD8605546DD","tur":"BELMEK - BELTEK","adi":"BELMEK ","adres":"Akşemsettin Mah.","x":null,"y":null,"aktif":true,"mahalle":"AKŞEMSETTİN","aciklama":null}},{"type":"Feature","geometry":{"type":"Point","coordinates":[32.651794354721,40.4735546724]},"properties":{"oid":8879,"global_id":"17811298-0D5B-A535-58B1-3D014EFF89A7","tur":"BELMEK - BELTEK","adi":"BELMEK ","adres":"Akçay Mah.","x":null,"y":null,"aktif":true,"mahalle":"AKÇAY","aciklama":null}},{"type":"Feature","geometry":{"type":"Point","coordinates":[32.830070543362,39.920420771333]},"properties":{"oid":8878,"global_id":"80263FA1-06D4-70AC-43F2-03893E01C7BB","tur":"BELMEK - BELTEK","adi":"BELMEK ","adres":"Yukarı Bahçelievler Mah.","x":null,"y":null,"aktif":true,"mahalle":"YUKARI BAHÇELİEVLER","aciklama":null}},{"type":"Feature","geometry":{"type":"Point","coordinates":[32.628405019793,40.000196110735]},"properties":{"oid":8877,"global_id":"878D8C4B-31CD-D559-E174-7E4D0177B8EE","tur":"BELMEK - BELTEK","adi":"BELMEK ","adres":"Eryaman Mah.","x":null,"y":null,"aktif":true,"mahalle":"ŞEYH ŞAMİL","aciklama":null}},{"type":"Feature","geometry":{"type":"Point","coordinates":[32.853132682209,39.988066330303]},"properties":{"oid":8876,"global_id":"89E84825-675F-91D3-921D-071F188F38DB","tur":"BELMEK - BELTEK","adi":"BELMEK ","adres":"19 Mayıs Mah.","x":null,"y":null,"aktif":true,"mahalle":"19 MAYIS","aciklama":null}},{"type":"Feature","geometry":{"type":"Point","coordinates":[32.707801599029,39.898967196899]},"properties":{"oid":8837,"global_id":"D87F759B-3E3D-0489-B783-1472BF4B6963","tur":"BELMEK - BELTEK","adi":"BELMEK ","adres":"Mutlukent Mah.","x":null,"y":null,"aktif":true,"mahalle":"MUTLUKENT","aciklama":null}},{"type":"Feature","geometry":{"type":"Point","coordinates":[32.830090754489,39.920415844583]},"properties":{"oid":8825,"global_id":"9AF09317-F342-DC73-EC2A-06E1864324D9","tur":"BELMEK - BELTEK","adi":"BELMEK ","adres":"Yukarı Bahçelievler Mah.","x":null,"y":null,"aktif":true,"mahalle":"YUKARI BAHÇELİEVLER","aciklama":null}},{"type":"Feature","geometry":{"type":"Point","coordinates":[32.903772274732,40.036950723318]},"properties":{"oid":8805,"global_id":"881A06FD-4D35-0C76-FA2E-2A2AE7C80968","tur":"BELMEK - BELTEK","adi":"BELMEK ","adres":"Merkez Mah.","x":null,"y":null,"aktif":true,"mahalle":"MERKEZ","aciklama":null}},{"type":"Feature","geometry":{"type":"Point","coordinates":[32.889481489586,39.91820884354]},"properties":{"oid":8745,"global_id":"5F33F8AA-475D-2FA3-052B-E5E5012CA6B5","tur":"BELMEK - BELTEK","adi":"BELMEK ","adres":"Akdere Mah.","x":null,"y":null,"aktif":true,"mahalle":"AKDERE","aciklama":null}},{"type":"Feature","geometry":{"type":"Point","coordinates":[32.818502090802,39.908824174546]},"properties":{"oid":8677,"global_id":"57B6DC9A-0DA1-4283-1BBD-ECC4CEE9D503","tur":"BELMEK - BELTEK","adi":"BELMEK ","adres":"Balgat Mah.","x":null,"y":null,"aktif":true,"mahalle":"BALGAT","aciklama":null}},{"type":"Feature","geometry":{"type":"Point","coordinates":[32.842245924544,39.879084005914]},"properties":{"oid":8568,"global_id":"AD7FB4B1-8018-2E22-74D9-8100ECCEB423","tur":"BELMEK - BELTEK","adi":"BELMEK ","adres":"Naci Çakır Mah.","x":null,"y":null,"aktif":true,"mahalle":"NACİ ÇAKIR","aciklama":null}},{"type":"Feature","geometry":{"type":"Point","coordinates":[32.874229868456,40.001163177548]},"properties":{"oid":8871,"global_id":"DFE1866F-452F-0889-8234-726EA67CED0F","tur":"ÇOCUK KULÜPLERİ","adi":"AKTEPE ÇOCUK KULÜBÜ","adres":"KÖŞK","x":null,"y":null,"aktif":true,"mahalle":"KÖŞK","aciklama":null}},{"type":"Feature","geometry":{"type":"Point","coordinates":[32.86277784481,39.954053690177]},"properties":{"oid":9978,"global_id":"0737F6B0-FCDD-FEE5-DB61-CCC7B9ED34C8","tur":"KADINLAR LOKALLERİ","adi":"ALTINDAĞ KADINLAR LOKALİ","adres":"ZİRAAT","x":null,"y":null,"aktif":true,"mahalle":"ÖRNEK","aciklama":null}},{"type":"Feature","geometry":{"type":"Point","coordinates":[32.733502507338,39.961638365436]},"properties":{"oid":9981,"global_id":"BEE242D1-011D-8B4B-5B9C-4021EF077690","tur":"KADINLAR LOKALLERİ","adi":"BATIKENT KADINLAR LOKALİ","adres":"UĞURMUMCU","x":null,"y":null,"aktif":true,"mahalle":"UĞUR MUMCU","aciklama":null}},{"type":"Feature","geometry":{"type":"Point","coordinates":[33.036010397307,40.239091788666]},"properties":{"oid":9983,"global_id":"CD4037EA-358E-6816-CFCF-B12F54E59765","tur":"KADINLAR LOKALLERİ","adi":"ÇUBUK KADINLAR LOKALİ","adres":"YAVUZ SELİM","x":null,"y":null,"aktif":true,"mahalle":"YAVUZSELİM","aciklama":null}},{"type":"Feature","geometry":{"type":"Point","coordinates":[32.827919784518,39.930829889141]},"properties":{"oid":9963,"global_id":"99ABA651-EE81-A91B-F1CA-257AA73A8312","tur":"GİYSİ YIKAMA MERKEZLERİ","adi":"BEŞEVLER GİYSİ YIKAMA MERKEZİ","adres":"BAHÇELİEVLER MAH.","x":null,"y":null,"aktif":true,"mahalle":"BAHÇELİEVLER","aciklama":null}},{"type":"Feature","geometry":{"type":"Point","coordinates":[32.894759486435,40.003477924825]},"properties":{"oid":53699,"global_id":"43EA707E-84C8-72A8-A67D-22F1E8CB96F0","tur":"TEKNOLOJİ MERKEZLERİ","adi":"ANKARA BÜYÜKŞEHİR BELEDİYESİ TECHBRİDGE KUZEY YILDIZI","adres":"ETAP REKREASYON ALANI, YEŞILTEPE MAHALLESI GÜNEBAKAN SOKAK 2, KÜME EVLERI NO:5, 06010 KEÇIÖREN/ANKARA","x":null,"y":null,"aktif":true,"mahalle":"YEŞİLTEPE","aciklama":null}},{"type":"Feature","geometry":{"type":"Point","coordinates":[32.843598541429,39.890708358863]},"properties":{"oid":53701,"global_id":"A476128D-5C02-E86C-B9E1-CA8BBCEF889C","tur":"TEKNOLOJİ MERKEZLERİ","adi":"ANKARA TEKNOLOJİ KÖPRÜSÜ","adres":"AYRANCI, ŞAIR NAZIM SK., 06540 ÇANKAYA/ANKARA","x":null,"y":null,"aktif":true,"mahalle":"İLKADIM","aciklama":null}},{"type":"Feature","geometry":{"type":"Point","coordinates":[32.869308045206,39.88220327476]},"properties":{"oid":53702,"global_id":"27CC6C18-3772-2AA0-7569-4C989848F8E2","tur":"TEKNOLOJİ MERKEZLERİ","adi":"BİRLİK MAHALLESİ DİJİTAL AKADEMİ MERKEZİ","adres":"414. CADDE BİRLİK MAHALLESİ NO: 16 ÇANKAYA/ANKARA","x":null,"y":null,"aktif":true,"mahalle":"BİRLİK","aciklama":null}},{"type":"Feature","geometry":{"type":"Point","coordinates":[32.842093441474,39.894510325421]},"properties":{"oid":9985,"global_id":"FAB5DCC7-7968-DDE6-E21F-44E863395D5F","tur":"KADINLAR LOKALLERİ","adi":"DİKMEN KADINLAR LOKALİ","adres":"DİKMEN","x":null,"y":null,"aktif":true,"mahalle":"İLKADIM","aciklama":null}},{"type":"Feature","geometry":{"type":"Point","coordinates":[32.829033556424,39.973980812146]},"properties":{"oid":10096,"global_id":"E77E6551-C748-9C9F-FE28-E03D69ABF175","tur":"AİLE YAŞAM ve GENÇLİK MERKEZLERİ","adi":"OSMANLI AİLE YAŞAM MERKEZİ","adres":"ADNAN YÜKSEL CAD.NO:2","x":null,"y":null,"aktif":true,"mahalle":"ETLİK","aciklama":null}},{"type":"Feature","geometry":{"type":"Point","coordinates":[32.606788093931,39.95796061527]},"properties":{"oid":10097,"global_id":"D03EBB84-9F31-D3AA-6DB1-F99C72DA2C5F","tur":"AİLE YAŞAM ve GENÇLİK MERKEZLERİ","adi":"ELVANKENT AİLE YAŞAM MERKEZİ","adres":"ATAKENT MAH.BANKA BLOKLARI ","x":null,"y":null,"aktif":true,"mahalle":"ATAKENT","aciklama":null}},{"type":"Feature","geometry":{"type":"Point","coordinates":[32.862394766318,39.958232339291]},"properties":{"oid":10106,"global_id":"FD112D86-8858-9166-D73F-3ECD512DC538","tur":"AİLE YAŞAM ve GENÇLİK MERKEZLERİ","adi":"ALTINDAĞ GENÇLİK MERKEZİ","adres":"ALTINDAĞ CAD. NO:31","x":null,"y":null,"aktif":true,"mahalle":"ZÜBEYDE HANIM","aciklama":null}},{"type":"Feature","geometry":{"type":"Point","coordinates":[32.86257299729,39.952798121736]},"properties":{"oid":8869,"global_id":"23B911D9-39D8-6C88-C99F-53D801E2AEDC","tur":"ÇOCUK KULÜPLERİ","adi":"ALTINDAĞ ÇOCUK KULÜBÜ","adres":"FAZİLET","x":null,"y":null,"aktif":true,"mahalle":"ÖRNEK","aciklama":null}},{"type":"Feature","geometry":{"type":"Point","coordinates":[32.822301182954,39.939643923292]},"properties":{"oid":8932,"global_id":"651E0F14-F024-0E02-8F3E-EC8D6419E559","tur":"BELMEK - BELTEK","adi":"BELTEK ","adres":"Emniyet Mah.","x":null,"y":null,"aktif":true,"mahalle":"EMNİYET","aciklama":null}},{"type":"Feature","geometry":{"type":"Point","coordinates":[32.744944500775,39.982517657787]},"properties":{"oid":8875,"global_id":"365CDA68-A11B-B085-1716-6AE17066C2D6","tur":"BELMEK - BELTEK","adi":"BELTEK ","adres":"Ostim Mah.","x":null,"y":null,"aktif":true,"mahalle":"OSTİM OSB","aciklama":null}},{"type":"Feature","geometry":{"type":"Point","coordinates":[32.732894970088,39.971133952904]},"properties":{"oid":9967,"global_id":"B151F56B-AA6B-B522-37A5-E2E59518B316","tur":"GÜNDÜZ BAKIM EVLERİ","adi":"BATIKENT GÜNDÜZ BAKIMEVİ","adres":"İLK YERLEŞİM MAH.","x":null,"y":null,"aktif":true,"mahalle":"İLKYERLEŞİM","aciklama":null}},{"type":"Feature","geometry":{"type":"Point","coordinates":[32.856457606988,39.997657062968]},"properties":{"oid":9969,"global_id":"19F2752C-8B7B-65BE-F71F-5BADC6CA4E2F","tur":"GÜNDÜZ BAKIM EVLERİ","adi":"KUŞCAĞIZ  GÜNDÜZ BAKIMEVİ","adres":"KUŞCAĞIZ MAH.","x":null,"y":null,"aktif":true,"mahalle":"KUŞCAĞIZ","aciklama":null}},{"type":"Feature","geometry":{"type":"Point","coordinates":[32.830086229222,39.973730307537]},"properties":{"oid":9966,"global_id":"0C0AADD3-0138-14BB-06C7-FD512A997718","tur":"GİYSİ YIKAMA MERKEZLERİ","adi":"OSMANLI GİYSİ YIKAMA MERKEZİ","adres":"ETLİK MAH.","x":null,"y":null,"aktif":true,"mahalle":"AŞAĞI EĞLENCE","aciklama":null}}]}